{
"type": "FeatureCollection",
"crs": { "type": "name", "properties": { "name": "listedplaces" } },
"features": 
[
  {
    "Name": "Les Usines Nouvelles",
    "City": "Ligugé",
    "Catégorie": "",
    "VulcaTour-step": "",
    "Vulca-tour": "",
    "Link of the Logo": "",
    "Location": "",
    "Country": "",
    "List of Events": "",
    "Latitude": "",
    "Longitude": ""
  },
  {
    "Name": "Les petits debrouillards Auvergne",
    "City": "",
    "Catégorie": "",
    "VulcaTour-step": "05.09",
    "Vulca-tour": "VT05",
    "Link of the Logo": "https://drive.google.com/uc?id=13rTdJj7udAZbAQYXyxCRyTlVJKVsW1yv",
    "Location": "32 Rue du Pont Naturel, 63000 Clermont-Ferrand,",
    "Country": "France",
    "List of Events": "",
    "Latitude": 45.7833033,
    "Longitude": 3.0792568
  },
  {
    "Name": "LinkFab",
    "City": "",
    "Catégorie": "",
    "VulcaTour-step": "06.21",
    "Vulca-tour": "VT06",
    "Link of the Logo": "",
    "Location": "6 Place Clément Marot, 46000 Cahors",
    "Country": "France",
    "List of Events": "",
    "Latitude": 44.4476048,
    "Longitude": 1.4430726
  },
  {
    "Name": "La Fabrique ENSAM",
    "City": "Montpellier",
    "Catégorie": "",
    "VulcaTour-step": 13.53,
    "Vulca-tour": "VT13",
    "Link of the Logo": "https://drive.google.com/uc?id=10qIAn_itBD1gmD_CKECYhelL_Y_JbCx3",
    "Location": "179 Rue de l'Espérou, 34095 Montpellier, France",
    "Country": "France",
    "List of Events": "",
    "Latitude": 43.636483,
    "Longitude": 3.8569411
  },
  {
    "Name": "Labsud",
    "City": "Montpellier",
    "Catégorie": "",
    "VulcaTour-step": "13.01,10.20,06.18,04.13",
    "Vulca-tour": "VT04,VT06,VT10,VT13",
    "Link of the Logo": "https://drive.google.com/uc?id=1k4q7WWSAw_yK3iCvJJqABqQw0mC-ibuT",
    "Location": "120 Allée John Napier, 34000 Montpellier, France",
    "Country": "France",
    "List of Events": "",
    "Latitude": 43.6151381,
    "Longitude": 3.9104419
  },
  {
    "Name": "8 Fablab",
    "City": "Crest",
    "Catégorie": "",
    "VulcaTour-step": "01.04",
    "Vulca-tour": "VT01,VT06",
    "Link of the Logo": "https://drive.google.com/uc?id=1PQyoPtZbZPvQWr1VMAVvL7l62Xk0npaw",
    "Location": "Rue Courre Commere, 26400 Crest, France",
    "Country": "France",
    "List of Events": "",
    "Latitude": 44.7282348,
    "Longitude": 5.0234955
  },
  {
    "Name": "Agrilab",
    "City": "Troissereux",
    "Catégorie": "",
    "VulcaTour-step": "09.54",
    "Vulca-tour": "VT02",
    "Link of the Logo": "https://drive.google.com/uc?id=1O-R9cN3UU7xpY5N3vGswjAmC6a3jzzYc",
    "Location": "Lieu dit, 60112 Troissereux, France",
    "Country": "France",
    "List of Events": "",
    "Latitude": 49.479067,
    "Longitude": 2.044654
  },
  {
    "Name": "Albilab",
    "City": "Albi",
    "Catégorie": "",
    "VulcaTour-step": "02.18",
    "Vulca-tour": "VT02",
    "Link of the Logo": "https://drive.google.com/uc?id=1KOx4nijOFhHGzTcxVE29xqgj_ddMU0qx",
    "Location": "8 Rue Pierre gilles de Gennes, 81000 Albi, France",
    "Country": "France",
    "List of Events": "",
    "Latitude": 43.920386,
    "Longitude": 2.1817174
  },
  {
    "Name": "APEDEC Fablab Mozinor",
    "City": "Montreuil",
    "Catégorie": "",
    "VulcaTour-step": "05.07",
    "Vulca-tour": "VT05",
    "Link of the Logo": "https://drive.google.com/uc?id=10bkrYL-rreWmLNUSV90J7xNB4gQ4f2Cf",
    "Location": "Montreuil, 2 à 20 avenue Allende, MOZINOR, Montreuil , 93106, France",
    "Country": "France",
    "List of Events": "",
    "Latitude": 48.8684485,
    "Longitude": 2.4567729
  },
  {
    "Name": "POP LAB",
    "City": "Montreuil",
    "Catégorie": "",
    "VulcaTour-step": "05.06",
    "Vulca-tour": "VT05",
    "Link of the Logo": "https://drive.google.com/uc?id=1tJ2uw9wPwemankH9EQ_ZCJaJJM-fyqrf",
    "Location": "9 Rue Dombasle, 93100 Montreuil, France",
    "Country": "France",
    "List of Events": "",
    "Latitude": 48.8642236,
    "Longitude": 2.449594
  },
  {
    "Name": "Articlect",
    "City": "Toulouse",
    "Catégorie": "",
    "VulcaTour-step": "03.25",
    "Vulca-tour": "VT10,VT06,VT03",
    "Link of the Logo": "https://drive.google.com/uc?id=10KKA2RvYfiPBCg9nO7dVLbmrFrX0mccV",
    "Location": "10 Rue Tripière, 31000 Toulouse, France",
    "Country": "France",
    "List of Events": "",
    "Latitude": 43.6017406,
    "Longitude": 1.4429481
  },
  {
    "Name": "Atallier Fablab Moulins",
    "City": "Moulins",
    "Catégorie": "",
    "VulcaTour-step": "05.10",
    "Vulca-tour": "VT01,VT02,VT03,VT04,VT05,VT06,VT07,VT08,VT09,VT10,VT11,VT12,VT13",
    "Link of the Logo": "https://drive.google.com/uc?id=1guYy5XSr26LbT7cbw6uzo-Bjif3qP5VT",
    "Location": "40 Cours de Bercy, 03000 Moulins, France",
    "Country": "France",
    "List of Events": "",
    "Latitude": 46.56993,
    "Longitude": 3.3273497
  },
  {
    "Name": "Avilab",
    "City": "Avignon",
    "Catégorie": "",
    "VulcaTour-step": "06.17",
    "Vulca-tour": "VT06",
    "Link of the Logo": "https://drive.google.com/uc?id=15JWEEiYfPt0fmpfbhFqTM6SFX4fFGFpZ",
    "Location": "14 Ter Impasse Lescure, 84000 Avignon",
    "Country": "France",
    "List of Events": "",
    "Latitude": 43.9344734,
    "Longitude": 4.8019344
  },
  {
    "Name": "Beta Machine",
    "City": "Chartres",
    "Catégorie": "",
    "VulcaTour-step": "09.55",
    "Vulca-tour": "VT09",
    "Link of the Logo": "https://drive.google.com/uc?id=1qay6wWhhLm-QUHqLREiVYZBg0Dj_Duf6",
    "Location": "15 rue Victor Gilbert\n28000 Chartres",
    "Country": "France",
    "List of Events": "",
    "Latitude": 48.4410784,
    "Longitude": 1.4931561
  },
  {
    "Name": "Chantier Libre",
    "City": "Saint-Cyr-de-Favières",
    "Catégorie": "",
    "VulcaTour-step": 15.17,
    "Vulca-tour": "VT15",
    "Link of the Logo": "https://drive.google.com/uc?id=1n6IJB_5D7J4K-qcVTMXNZKiKlyZCgjbg",
    "Location": "Place de la Gare, 42123 Saint-Cyr-de-Favières",
    "Country": "France",
    "List of Events": "",
    "Latitude": 45.9741988,
    "Longitude": 4.1313978
  },
  {
    "Name": "Club Modélisme Stéphanois",
    "City": "Saint esteve",
    "Catégorie": "",
    "VulcaTour-step": 13.06,
    "Vulca-tour": "VT13",
    "Link of the Logo": "https://drive.google.com/uc?id=1fgCeAh2ecLi0DG5OEPfolTussjmWXAjR",
    "Location": "9 Rue du Ribéral, Saint-Estève, France",
    "Country": "France",
    "List of Events": "",
    "Latitude": 42.7190597,
    "Longitude": 2.8468579
  },
  {
    "Name": "Convergence 26",
    "City": "Montbelliard",
    "Catégorie": "",
    "VulcaTour-step": "06.16",
    "Vulca-tour": "VT06",
    "Link of the Logo": "https://drive.google.com/uc?id=16oXbvIFw3DRFIhuM64n7t3Tl3g54inVO",
    "Location": "2 Place Léopold Blanc Anciennement, place du chapeau rouge, 26200 Montélimar",
    "Country": "France",
    "List of Events": "",
    "Latitude": 44.5573339,
    "Longitude": 4.7525088
  },
  {
    "Name": "Fab Lab Château-Thierry",
    "City": "Château-Thierry",
    "Catégorie": "",
    "VulcaTour-step": "08.43,10.01",
    "Vulca-tour": "VT08,VT10",
    "Link of the Logo": "https://drive.google.com/uc?id=1AiKS4tQDum371h6df1lvgNVhz7oC2-PJ",
    "Location": "53 Rue Paul Doucet, 02400 Château-Thierry, France",
    "Country": "France",
    "List of Events": "",
    "Latitude": 49.0408992,
    "Longitude": 3.3994988
  },
  {
    "Name": "Fab Lab L'atelier",
    "City": "Bar Sur Seine",
    "Catégorie": "",
    "VulcaTour-step": 15.4,
    "Vulca-tour": "VT15",
    "Link of the Logo": "https://drive.google.com/uc?id=1PGiWKpwBhuYphKgwJQgUEQn7p8q1SEPy",
    "Location": "145 Grande Rue de la Résistance, 10110 Bar-sur-Seine, France",
    "Country": "France",
    "List of Events": "",
    "Latitude": 48.1141642,
    "Longitude": 4.373263
  },
  {
    "Name": "Fablab Carmes",
    "City": "Pertuis",
    "Catégorie": "",
    "VulcaTour-step": 10.16,
    "Vulca-tour": "VT10",
    "Link of the Logo": "https://drive.google.com/uc?id=1-LLjgKc7Tu6sBO8gWDS8JuG86LVFCtSC",
    "Location": "D943 Avenue du 8 Mai, 84160 Lourmarin, France",
    "Country": "France",
    "List of Events": "",
    "Latitude": 43.766471,
    "Longitude": 5.3612315
  },
  {
    "Name": "FabLab Made-In-Iki",
    "City": "Commenailles, France",
    "Catégorie": "",
    "VulcaTour-step": "07.48",
    "Vulca-tour": "VT07",
    "Link of the Logo": "https://drive.google.com/uc?id=14h_dnlK-nZ6qsGaLE3NgzExhYSkNASkd",
    "Location": "5 Place du Général Michelin, 39140 Commenailles",
    "Country": "France",
    "List of Events": "",
    "Latitude": 46.802905,
    "Longitude": 5.451854
  },
  {
    "Name": "Fablab Nîme",
    "City": "Nîmes",
    "Catégorie": "",
    "VulcaTour-step": 13.52,
    "Vulca-tour": "VT13",
    "Link of the Logo": "https://drive.google.com/uc?id=1vbQ8m85J1S9z2k0mWkCebCV-h0BKTrod",
    "Location": "69 Rue Georges Besse, 30000 Nîmes, France",
    "Country": "France",
    "List of Events": "",
    "Latitude": 43.8211467,
    "Longitude": 4.3685975
  },
  {
    "Name": "Fablab Pau (MIPS)",
    "City": "Pau",
    "Catégorie": "",
    "VulcaTour-step": 13.48,
    "Vulca-tour": "VT13",
    "Link of the Logo": "https://drive.google.com/uc?id=1R4GctAo49Sk2pqAH6G5KXqzDYphi4GS5",
    "Location": "4 Rue Despourrins, 64000 Pau, France",
    "Country": "France",
    "List of Events": "",
    "Latitude": 43.2991893,
    "Longitude": -0.366652
  },
  {
    "Name": "Maillol Fablab",
    "City": "Perpignan",
    "Catégorie": "",
    "VulcaTour-step": 13.04,
    "Vulca-tour": "VT13",
    "Link of the Logo": "https://drive.google.com/uc?id=1fTyvkwUhixz0y990dXOe_6nYYFXqCQB8",
    "Location": "73 Avenue Pau Casals, 66000 Perpignan, France",
    "Country": "France",
    "List of Events": "",
    "Latitude": 42.7173668,
    "Longitude": 2.8861113
  },
  {
    "Name": "Fablab Sevigné",
    "City": "Perpignan",
    "Catégorie": "",
    "VulcaTour-step": 13.05,
    "Vulca-tour": "VT13",
    "Link of the Logo": "https://drive.google.com/uc?id=1UpLmQwin0h16EJtjE6aOVTC5_4AHssLA",
    "Location": "21 Avenue Fernand de Chefdebien, 66000 Perpignan",
    "Country": "France",
    "List of Events": "",
    "Latitude": 42.6881478,
    "Longitude": 2.8858542
  },
  {
    "Name": "FabLac",
    "City": "Anthy-Sur-Leman",
    "Catégorie": "",
    "VulcaTour-step": "07.45",
    "Vulca-tour": "VT07",
    "Link of the Logo": "https://drive.google.com/uc?id=1bmGT_WErD6q6BeFGpS9zWhbWlGcJ5FTA",
    "Location": "2 Place de l'Église, 74200 Anthy-sur-Léman, France",
    "Country": "France",
    "List of Events": "",
    "Latitude": 46.3556696,
    "Longitude": 6.4262438
  },
  {
    "Name": "FabNLab",
    "City": "Clamecy",
    "Catégorie": "",
    "VulcaTour-step": "01.02",
    "Vulca-tour": "VT01",
    "Link of the Logo": "https://drive.google.com/uc?id=1gD93jDvmFUwza8Fya3LAFAi98QvehUr6",
    "Location": "12 Rue de Druyes, 58500 Clamecy, France",
    "Country": "France",
    "List of Events": "",
    "Latitude": 47.4613122,
    "Longitude": 3.5151422
  },
  {
    "Name": "Fabulis",
    "City": "Sarreguemines",
    "Catégorie": "",
    "VulcaTour-step": "03.03",
    "Vulca-tour": "VT03",
    "Link of the Logo": "https://drive.google.com/uc?id=1UfSfyzu2qGw0gQ3wyM2hTQSIS0a2rXPY",
    "Location": "60 Rue du Maréchal Foch, 57200 Sarreguemines, France",
    "Country": "France",
    "List of Events": "",
    "Latitude": 49.1159356,
    "Longitude": 7.0794227
  },
  {
    "Name": "Le petit fablab de paris",
    "City": "Paris",
    "Catégorie": "",
    "VulcaTour-step": "06.27",
    "Vulca-tour": "VT06",
    "Link of the Logo": "https://drive.google.com/uc?id=14ru_xWjHwz06mXuL3P5pxPJ0ajteqarr",
    "Location": "86 Avenue Philippe Auguste, 75011 Paris",
    "Country": "France",
    "List of Events": "",
    "Latitude": 48.8551607,
    "Longitude": 2.3920183
  },
  {
    "Name": "Faclab",
    "City": "Paris",
    "Catégorie": "",
    "VulcaTour-step": "06.23",
    "Vulca-tour": "VT06",
    "Link of the Logo": "https://drive.google.com/uc?id=1tL3J3FguXi9_sfihjcoVsSKdkErqQKXI",
    "Location": "Avenue Marcel Paul, 92230 Gennevilliers",
    "Country": "France",
    "List of Events": "",
    "Latitude": 48.9411155,
    "Longitude": 2.3034303
  },
  {
    "Name": "La Paillasse",
    "City": "Paris",
    "Catégorie": "",
    "VulcaTour-step": "06.26",
    "Vulca-tour": "VT06",
    "Link of the Logo": "",
    "Location": "226 Rue Saint-Denis, 75002 Paris",
    "Country": "France",
    "List of Events": "",
    "Latitude": 48.8684606,
    "Longitude": 2.3521918
  },
  {
    "Name": "MakerLab CRI Paris",
    "City": "Paris",
    "Catégorie": "",
    "VulcaTour-step": "08.44",
    "Vulca-tour": "VT08",
    "Link of the Logo": "https://drive.google.com/uc?id=1fXLd7X1OqzHQTVzqujwnjZH2e_AjXTIa",
    "Location": "Rue Charles V - Paris",
    "Country": "France",
    "List of Events": "",
    "Latitude": 48.8530069,
    "Longitude": 2.3626174
  },
  {
    "Name": "Woma",
    "City": "Paris",
    "Catégorie": "",
    "VulcaTour-step": "02.01",
    "Vulca-tour": "VT02",
    "Link of the Logo": "https://drive.google.com/uc?id=1__MVAIE6Mid8l2tErxjbgOe_IUdDRmXm",
    "Location": "15bis Rue Léon Giraud, 75019 Paris, France",
    "Country": "France",
    "List of Events": "",
    "Latitude": 48.8878536,
    "Longitude": 2.3827509
  },
  {
    "Name": "French Maker",
    "City": "Besançon",
    "Catégorie": "",
    "VulcaTour-step": "11.01,02.02",
    "Vulca-tour": "VT11,VT02",
    "Link of the Logo": "https://drive.google.com/uc?id=1TYjwfgJG5VVVjvmKC2yyAYF7fMt7AR8S",
    "Location": "17 Rue Xavier Marmier, 25000 Besançon, France",
    "Country": "France",
    "List of Events": "",
    "Latitude": 47.2420136,
    "Longitude": 6.0070063
  },
  {
    "Name": "FunLab",
    "City": "Tours",
    "Catégorie": "",
    "VulcaTour-step": "05.08",
    "Vulca-tour": "VT05",
    "Link of the Logo": "https://drive.google.com/uc?id=1-XKVJ9ib3jdExPwTgDt7hsPJjbnpNkz0",
    "Location": "49 Boulevard Preuilly, 37000 Tours, France",
    "Country": "France",
    "List of Events": "",
    "Latitude": 47.3930409,
    "Longitude": 0.6686193
  },
  {
    "Name": "Generateur 9",
    "City": "Lyon",
    "Catégorie": "",
    "VulcaTour-step": 15.05,
    "Vulca-tour": "VT15",
    "Link of the Logo": "https://drive.google.com/uc?id=15iXMsQ6LSWmq-2UbKJFYUZtNptkAPW-4",
    "Location": "39 avenue Sidoine Apollinaire\n69009 LYON",
    "Country": "France",
    "List of Events": "",
    "Latitude": 45.77234331,
    "Longitude": 4.79603211
  },
  {
    "Name": "Graoulab",
    "City": "Metz",
    "Catégorie": "",
    "VulcaTour-step": "08.04",
    "Vulca-tour": "VT08",
    "Link of the Logo": "https://drive.google.com/uc?id=16AJgZElmhzL9RigyPVir1DpdS83X9bA5",
    "Location": "IUT GMP, 57000 Metz, France",
    "Country": "France",
    "List of Events": "",
    "Latitude": 49.1193841,
    "Longitude": 6.1614456
  },
  {
    "Name": "Iness Fablab",
    "City": "Narbonne",
    "Catégorie": "",
    "VulcaTour-step": 13.51,
    "Vulca-tour": "VT13",
    "Link of the Logo": "https://drive.google.com/uc?id=1Wb4Ku2utAFA6wFwabb7Sm_MPnz98s1kh",
    "Location": "30 Avenue du Dr Paul Pompidor, 11100 Narbonne, France",
    "Country": "France",
    "List of Events": "",
    "Latitude": 43.1818285,
    "Longitude": 2.9785714
  },
  {
    "Name": "Kell Fabrik",
    "City": "Dijon",
    "Catégorie": "",
    "VulcaTour-step": "03.01",
    "Vulca-tour": "VT03",
    "Link of the Logo": "https://drive.google.com/uc?id=1iUGlGG6zQEx3EBWPSrA0CCaUO8-52Dnx",
    "Location": "Boîte PP2, 2 Rue des Corroyeurs, 21000 Dijon, France",
    "Country": "France",
    "List of Events": "",
    "Latitude": 47.3151759,
    "Longitude": 5.0317533
  },
  {
    "Name": "L'etabli",
    "City": "Soustons",
    "Catégorie": "",
    "VulcaTour-step": "07.02",
    "Vulca-tour": "VT07",
    "Link of the Logo": "https://drive.google.com/uc?id=1NIszoSiDQpPs30sG2XU337lF8tjugcAg",
    "Location": "18 Rue de Moscou, 40140 Soustons",
    "Country": "France",
    "List of Events": "",
    "Latitude": 43.748365,
    "Longitude": -1.3245137
  },
  {
    "Name": "La Bêta-Pi",
    "City": "Melle",
    "Catégorie": "",
    "VulcaTour-step": "09.02",
    "Vulca-tour": "VT09",
    "Link of the Logo": "https://drive.google.com/uc?id=1gMcu5H8igp9o4xuvHVOvmXg1orY2HpSP",
    "Location": "5 Rue du Bourgneuf, 79500 Melle, France",
    "Country": "France",
    "List of Events": "",
    "Latitude": 46.2210599,
    "Longitude": -0.1456704
  },
  {
    "Name": "La Bricothèque",
    "City": "Pernes-Les-Fontaines",
    "Catégorie": "",
    "VulcaTour-step": 10.18,
    "Vulca-tour": "VT10",
    "Link of the Logo": "https://drive.google.com/uc?id=1qoG5oq6F7Fx1_UDkwYPql3oWHELdyIjl",
    "Location": "491 Cours Frizet, 84210 Pernes-les-Fontaines, France",
    "Country": "France",
    "List of Events": "",
    "Latitude": 44.0012797,
    "Longitude": 5.0595776
  },
  {
    "Name": "La Casemate",
    "City": "Grenoble",
    "Catégorie": "",
    "VulcaTour-step": 15.07,
    "Vulca-tour": "VT15",
    "Link of the Logo": "https://drive.google.com/uc?id=1xjNSIxBRrsNplsdMDN1Oy_TWLMk1EPPW",
    "Location": "CCSTI La Casemate\n2 place Saint-Laurent\n38000 Grenoble",
    "Country": "France",
    "List of Events": "",
    "Latitude": 45.1976276,
    "Longitude": 5.7322966
  },
  {
    "Name": "La cocotte Numérique",
    "City": "Murat",
    "Catégorie": "",
    "VulcaTour-step": "03.24",
    "Vulca-tour": "VT03",
    "Link of the Logo": "https://drive.google.com/uc?id=1axWHF0HyiJozDu6i8oo_ClAtGC6Uu39t",
    "Location": "4 Rue du Faubourg Notre Dame, 15300 Murat, France",
    "Country": "France",
    "List of Events": "",
    "Latitude": 45.1108993,
    "Longitude": 2.8700624
  },
  {
    "Name": "La Fabrique",
    "City": "Strasbourg",
    "Catégorie": "",
    "VulcaTour-step": 11.03,
    "Vulca-tour": "VT11",
    "Link of the Logo": "https://drive.google.com/uc?id=1BMO1yVGdLc5ZL3xLvY748pGjZWLGNtdW",
    "Location": "91 Route des Romains, 67200 Strasbourg, France",
    "Country": "France",
    "List of Events": "",
    "Latitude": 48.5784656,
    "Longitude": 7.7099793
  },
  {
    "Name": "La fruitère Numérique",
    "City": "Louremarin",
    "Catégorie": "",
    "VulcaTour-step": 10.17,
    "Vulca-tour": "VT10",
    "Link of the Logo": "https://drive.google.com/uc?id=1bzSsYJwNCuX5eH7onak5DFcAX-arlhMR",
    "Location": "D943 Avenue du 8 Mai, 84160 Lourmarin, France",
    "Country": "France",
    "List of Events": "",
    "Latitude": 43.766471,
    "Longitude": 5.3612315
  },
  {
    "Name": "La Gare Numerique",
    "City": "Carpentras",
    "Catégorie": "",
    "VulcaTour-step": 10.19,
    "Vulca-tour": "VT10",
    "Link of the Logo": "https://drive.google.com/uc?id=1up5VdaJ6aQin33kNpHPaYICZsijTIb2f",
    "Location": "41 Rue Porte de Monteux, 84200 Carpentras, France",
    "Country": "France",
    "List of Events": "",
    "Latitude": 44.0548819,
    "Longitude": 5.0459667
  },
  {
    "Name": "La petite fabrique de Toulon",
    "City": "Toulon",
    "Catégorie": "",
    "VulcaTour-step": "01.06",
    "Vulca-tour": "VT01",
    "Link of the Logo": "https://drive.google.com/uc?id=16KZtLjbJLLLqEcWPXvA3TBNKIpsx0ypU",
    "Location": "22 Rue des Riaux, 83000 Toulon, France",
    "Country": "France",
    "List of Events": "",
    "Latitude": 43.1219917,
    "Longitude": 5.9318595
  },
  {
    "Name": "Petits debrouillards Grand Est",
    "City": "Maxeville",
    "Catégorie": "",
    "VulcaTour-step": 12.01,
    "Vulca-tour": "VT12",
    "Link of the Logo": "https://drive.google.com/uc?id=1UBn-_fHsztmrzUQXlwntUE6qsj4zTVRj",
    "Location": "5 Avenue de Metz, 54320 Maxéville, France",
    "Country": "France",
    "List of Events": "",
    "Latitude": 48.7053026,
    "Longitude": 6.1671653
  },
  {
    "Name": "La Piscine / Les Petits deb",
    "City": "Maxeville",
    "Catégorie": "",
    "VulcaTour-step": "08.01",
    "Vulca-tour": "VT08",
    "Link of the Logo": "https://drive.google.com/uc?id=1UBn-_fHsztmrzUQXlwntUE6qsj4zTVRj",
    "Location": "5 Avenue de Metz, 54320 Maxéville, France",
    "Country": "France",
    "List of Events": "",
    "Latitude": 48.7053026,
    "Longitude": 6.1671653
  },
  {
    "Name": "La Quincaillerie",
    "City": "Gueret",
    "Catégorie": "",
    "VulcaTour-step": "09.01,01.03",
    "Vulca-tour": "VT09,VT01",
    "Link of the Logo": "https://drive.google.com/uc?id=1BgwjRh6KkvIVoAzMv_vjALyceiOCtzam",
    "Location": "22 Avenue Charles de Gaulle, 23000 Guéret, France",
    "Country": "France",
    "List of Events": "",
    "Latitude": 46.1709397,
    "Longitude": 1.8740376
  },
  {
    "Name": "Lab Aix",
    "City": "Aix-en-Provence",
    "Catégorie": "",
    "VulcaTour-step": "01.05",
    "Vulca-tour": "VT01",
    "Link of the Logo": "https://drive.google.com/uc?id=1swKXShFR8xMrO6O_yb4ZdCpxr3PiUWyp",
    "Location": "IUT d’Aix-en-Provence\n431 Avenue Gaston Berger\n13625 Aix-en-Provence cedex 1",
    "Country": "France",
    "List of Events": "",
    "Latitude": 43.5143407,
    "Longitude": 5.4513553
  },
  {
    "Name": "Lab du Pensio",
    "City": "Puy-En-Velay",
    "Catégorie": "",
    "VulcaTour-step": "06.25,02.21",
    "Vulca-tour": "VT06,VT02",
    "Link of the Logo": "https://drive.google.com/uc?id=1SvBa4oGlOqZ_fafFNy7j42FDS-288Mjr",
    "Location": "1 Rue du Pensionnat Notre Dame de France, 43000 Le Puy-en-Velay, France",
    "Country": "France",
    "List of Events": "",
    "Latitude": 45.0413063,
    "Longitude": 3.8796129
  },
  {
    "Name": "Lab'aux",
    "City": "Semur-en-Auxois",
    "Catégorie": "",
    "VulcaTour-step": "06.28",
    "Vulca-tour": "VT06",
    "Link of the Logo": "https://drive.google.com/uc?id=1xWZyP111ujkTwmMTUH8wiea5Z5BLAbdK",
    "Location": "43 Rue de Vigne, 21140 Semur-en-Auxois",
    "Country": "France",
    "List of Events": "",
    "Latitude": 47.4950814,
    "Longitude": 4.3351044
  },
  {
    "Name": "Lab01",
    "City": "Ambérieu-en-Bugey",
    "Catégorie": "",
    "VulcaTour-step": 11.47,
    "Vulca-tour": "VT11",
    "Link of the Logo": "https://drive.google.com/uc?id=1fuyiPZcxgz41r7wxvudVjNoHl6USEBDC",
    "Location": "46-48 Rue Gustave Noblemaire, 01500 Ambérieu-en-Bugey, France",
    "Country": "France",
    "List of Events": "",
    "Latitude": 45.9542403,
    "Longitude": 5.345179
  },
  {
    "Name": "Labo Motive",
    "City": "Saint-Maur",
    "Catégorie": "",
    "VulcaTour-step": "06.22",
    "Vulca-tour": "VT06",
    "Link of the Logo": "https://drive.google.com/uc?id=1KBI8sF8uHmHZT1DvyiaVQ-ggiFjzS3PI",
    "Location": "10 Rue de la Gare, 36250 Saint-Maur",
    "Country": "France",
    "List of Events": "",
    "Latitude": 46.8019276,
    "Longitude": 1.6280012
  },
  {
    "Name": "Le Prototype",
    "City": "Chambery",
    "Catégorie": "",
    "VulcaTour-step": "06.14",
    "Vulca-tour": "VT06",
    "Link of the Logo": "https://drive.google.com/uc?id=1FU4lgV2c5EEq3xypD0iHIFlBM0GcHFem",
    "Location": "17 rue des diables bleus\n73000 CHAMBÉRY",
    "Country": "France",
    "List of Events": "",
    "Latitude": 45.5739489,
    "Longitude": 5.9137922
  },
  {
    "Name": "Les 3 lapins",
    "City": "Luxeuil-Les-Bains",
    "Catégorie": "",
    "VulcaTour-step": "13.54,11.02",
    "Vulca-tour": "VT13,VT11",
    "Link of the Logo": "https://drive.google.com/uc?id=1GCvBX06Da1Xg1XlJFoJH-Y6rA0TycN45",
    "Location": "2 Rue Lacépède, Luxeuil-les-Bains, Bourgogne Franche Comté, 70300, Franc",
    "Country": "France",
    "List of Events": "",
    "Latitude": 47.8180577,
    "Longitude": 6.3891184
  },
  {
    "Name": "Limouzilab",
    "City": "Limoges",
    "Catégorie": "",
    "VulcaTour-step": 11.01,
    "Vulca-tour": "VT11",
    "Link of the Logo": "https://drive.google.com/uc?id=14hWBMUnn6rjnmH9TiTSl3pYj0-khU2Ay",
    "Location": "33 Avenue de Louyat, 87100 Limoges, France",
    "Country": "France",
    "List of Events": "",
    "Latitude": 45.8475111,
    "Longitude": 1.2583012
  },
  {
    "Name": "NYBI FabLab",
    "City": "Nancy",
    "Catégorie": "",
    "VulcaTour-step": "08.02",
    "Vulca-tour": "VT08",
    "Link of the Logo": "https://drive.google.com/uc?id=1s3KXSd6SNo2A_nwJP8Wr4cIKfP44gaRG",
    "Location": "49 Boulevard d'Austrasie, 54000, Nancy",
    "Country": "France",
    "List of Events": "",
    "Latitude": 48.6937083,
    "Longitude": 6.2000079
  },
  {
    "Name": "Lorraine Fab Living Lab",
    "City": "Nancy",
    "Catégorie": "",
    "VulcaTour-step": "08.03",
    "Vulca-tour": "VT08",
    "Link of the Logo": "https://drive.google.com/uc?id=19a7_2Upvh3he4vKGYeuET_lRvSb-Jdiq",
    "Location": "49 Boulevard d'Austrasie, 54000 Nancy, France",
    "Country": "France",
    "List of Events": "",
    "Latitude": 48.6937083,
    "Longitude": 6.2000079
  },
  {
    "Name": "Luz'in",
    "City": "La tour du pain",
    "Catégorie": "",
    "VulcaTour-step": 15.6,
    "Vulca-tour": "VT15",
    "Link of the Logo": "https://drive.google.com/uc?id=14FMGS275LeXG5D-uKtY342qlo4OLfjfU",
    "Location": "3, rue des Muriers – ZA de Rhodes\n38110 LA TOUR DU PIN",
    "Country": "France",
    "List of Events": "",
    "Latitude": 45.56384436,
    "Longitude": 5.43582025
  },
  {
    "Name": "Machinerie d'Alex",
    "City": "Saint-Eloy-Les-Mines",
    "Catégorie": "",
    "VulcaTour-step": "01.08",
    "Vulca-tour": "VT01",
    "Link of the Logo": "https://drive.google.com/uc?id=19-JKhaCwLrceqKzwKCJDskhLo6-BX8lZ",
    "Location": "3 Rue du Collège, 63700 Saint-Éloy-les-Mines, France",
    "Country": "France",
    "List of Events": "",
    "Latitude": 46.1635414,
    "Longitude": 2.8237887
  },
  {
    "Name": "Makeo",
    "City": "Dax",
    "Catégorie": "",
    "VulcaTour-step": "07.03",
    "Vulca-tour": "VT07",
    "Link of the Logo": "https://drive.google.com/uc?id=1MfR2lWvjMa2OW9r4PmBHvWhU7_C0akfN",
    "Location": "1 Avenue de la Gare, 40100 Dax, France",
    "Country": "France",
    "List of Events": "",
    "Latitude": 43.7203975,
    "Longitude": -1.0519542
  },
  {
    "Name": "Mars-Hack Lab FabLab",
    "City": "Marsac sur L'îsle",
    "Catégorie": "",
    "VulcaTour-step": "07.01",
    "Vulca-tour": "VT07",
    "Link of the Logo": "https://drive.google.com/uc?id=1kL5lvU7bhgB9iRiVQ3Fa33aKqHd4tRxo",
    "Location": "95 Route de Bordeaux, 24430 Marsac-sur-l'Isle, France",
    "Country": "France",
    "List of Events": "",
    "Latitude": 45.1838327,
    "Longitude": 0.6560949
  },
  {
    "Name": "Numérifab",
    "City": "Bras sur Meuse",
    "Catégorie": "",
    "VulcaTour-step": "08.42",
    "Vulca-tour": "VT08",
    "Link of the Logo": "https://drive.google.com/uc?id=1wA3JKDv-GRbOvQ90sbt1yfVe4KdPCaXZ",
    "Location": "5 Place de la Mairie, 55100 Bras-sur-Meuse, France",
    "Country": "France",
    "List of Events": "",
    "Latitude": 49.2100549,
    "Longitude": 5.3771261
  },
  {
    "Name": "Pangloss Labs",
    "City": "Ferney-Voltaire",
    "Catégorie": "",
    "VulcaTour-step": "07.47",
    "Vulca-tour": "VT07",
    "Link of the Logo": "https://drive.google.com/uc?id=1Y3sQHPHLVYHB3iTu6KSQKHDGFAJnVjqX",
    "Location": "12bis Residence Joseph Boisson, Rue de Gex, 01210 Ferney-Voltaire, France",
    "Country": "France",
    "List of Events": "",
    "Latitude": 46.2595247,
    "Longitude": 6.1077512
  },
  {
    "Name": "PING",
    "City": "Nantes",
    "Catégorie": "",
    "VulcaTour-step": "02.02",
    "Vulca-tour": "VT02",
    "Link of the Logo": "https://drive.google.com/uc?id=1yCefIRhdjcxT0N9Bw6PJlXcbpA_D8mEg",
    "Location": "38 Rue du Breil, 44100 Nantes, France",
    "Country": "France",
    "List of Events": "",
    "Latitude": 47.2294636,
    "Longitude": -1.5844555
  },
  {
    "Name": "Repair Café Perpignan",
    "City": "Toulouges",
    "Catégorie": "",
    "VulcaTour-step": 13.08,
    "Vulca-tour": "VT13",
    "Link of the Logo": "",
    "Location": "Rue de la Grangerie, 66350 Toulouges, France",
    "Country": "France",
    "List of Events": "",
    "Latitude": 42.6714281,
    "Longitude": 2.8313086
  },
  {
    "Name": "Sapi Tiers Lieu (Acilab - Atelier chantier incertion)",
    "City": "Limoux",
    "Catégorie": "",
    "VulcaTour-step": 13.03,
    "Vulca-tour": "VT13",
    "Link of the Logo": "https://drive.google.com/uc?id=1yhWi_KY6j_r0QnlgVSOmJg0L_E0rfCTQ",
    "Location": "7 Rue du Cougaing, 11300 Limoux, France",
    "Country": "France",
    "List of Events": "",
    "Latitude": 43.0555331,
    "Longitude": 2.2126466
  },
  {
    "Name": "Sigmake",
    "City": "Clermont-Ferrand",
    "Catégorie": "",
    "VulcaTour-step": "06.24",
    "Vulca-tour": "VT06",
    "Link of the Logo": "https://drive.google.com/uc?id=1EoRpCGNFicpyfBMFkLdQT6lQql_JsVAH",
    "Location": "27 Rue Roche Genès, 63170 Aubière, France",
    "Country": "France",
    "List of Events": "",
    "Latitude": 45.7574725,
    "Longitude": 3.1129621
  },
  {
    "Name": "Squaregolab",
    "City": "Soler",
    "Catégorie": "",
    "VulcaTour-step": "13.07,07.39",
    "Vulca-tour": "VT07,VT13",
    "Link of the Logo": "https://drive.google.com/uc?id=1RTDwQkznKUR60Kfc4QOajQ2jW6GySOTq",
    "Location": "",
    "Country": "France",
    "List of Events": "",
    "Latitude": "",
    "Longitude": ""
  },
  {
    "Name": "Technistub",
    "City": "Mulhouse",
    "Catégorie": "",
    "VulcaTour-step": "15.16,12.43,10.17",
    "Vulca-tour": "VT15,VT12,VT10",
    "Link of the Logo": "https://drive.google.com/uc?id=1iQZjV6Dfi_X0YQPr4Un-sNw8JA3GbEzu",
    "Location": "2 Rue des Flandres, 68100 Mulhouse, France",
    "Country": "France",
    "List of Events": "",
    "Latitude": 47.7618833,
    "Longitude": 7.3594157
  },
  {
    "Name": "Tiers Lieu en Bigorre",
    "City": "Bagnère-de-Bigorre",
    "Catégorie": "",
    "VulcaTour-step": 13.49,
    "Vulca-tour": "VT13",
    "Link of the Logo": "https://drive.google.com/uc?id=1_P2j-qnG17BvaPoXd-IGQcb_JXITLdXg",
    "Location": "33 Avenue du Général Leclerc, 65200 Bagnères-de-Bigorre, France",
    "Country": "France",
    "List of Events": "",
    "Latitude": 43.071804,
    "Longitude": 0.143716
  },
  {
    "Name": "Web 5",
    "City": "Beziers",
    "Catégorie": "",
    "VulcaTour-step": "13.02,06.19",
    "Vulca-tour": "VT13,VT06",
    "Link of the Logo": "https://drive.google.com/uc?id=1bYFnr7ewqQ1-RcVXgxA2iOfjL8d0fblY",
    "Location": "3 Place du 14 Juillet, 34500 Béziers, France",
    "Country": "France",
    "List of Events": "",
    "Latitude": 43.3465791,
    "Longitude": 3.2221626
  },
  {
    "Name": "Zbis",
    "City": "Saint Georges de Montaigu",
    "Catégorie": "",
    "VulcaTour-step": "09.03",
    "Vulca-tour": "VT09",
    "Link of the Logo": "https://drive.google.com/uc?id=1r9LDdeWP58oX6GIdDW1Bnp91gmZPX6pt",
    "Location": "Saint Georges de Montaigu",
    "Country": "France",
    "List of Events": "",
    "Latitude": 46.94751,
    "Longitude": -1.296767
  },
  {
    "Name": "Les Usines Nouvelles",
    "City": "Ligugé",
    "Catégorie": "",
    "VulcaTour-step": "",
    "Vulca-tour": "VT03",
    "Link of the Logo": "https://drive.google.com/file/d/1QwBQRYluVs3n7VnYP4vc-l7HTX8SHeAj/view?usp=sharing",
    "Location": "La filature, avenue de la plage, 86340 Ligugé",
    "Country": "France",
    "List of Events": "",
    "Latitude": 46.5154385,
    "Longitude": 0.3365737
  },
  {
    "Name": "1535° Creative Hub",
    "City": "Differdange",
    "Catégorie": "",
    "VulcaTour-step": "02.20",
    "Vulca-tour": "VT02,VT08",
    "Link of the Logo": "https://drive.google.com/uc?id=1le1Gk_PdAMTbWETJUKhyhQKhr1-0B0eh",
    "Location": "115 Rue Emile Mark, 4620 Differdange, Luxembourg",
    "Country": "Luxembourg",
    "List of Events": "",
    "Latitude": 49.522108,
    "Longitude": 5.8997604
  },
  {
    "Name": "BulbZone",
    "City": "Luxembourg",
    "Catégorie": "",
    "VulcaTour-step": "02.19",
    "Vulca-tour": "VT02",
    "Link of the Logo": "https://drive.google.com/uc?id=1uzxQf-3MNhbdxCkoOVaSyOCAyjpEPxgy",
    "Location": "120 route d'Arlon, Strassen, L-8008, LU",
    "Country": "Luxembourg",
    "List of Events": "",
    "Latitude": 49.6197076,
    "Longitude": 6.0776765
  },
  {
    "Name": "57North Hacklab",
    "City": "Aberdeen",
    "Catégorie": "",
    "VulcaTour-step": "09.16",
    "Vulca-tour": "VT09",
    "Link of the Logo": "https://drive.google.com/uc?id=1-JOzsh_EudeLx5qbfCMAFlE1Fr1xMubJ",
    "Location": "Units G&H, 2 Kettock Lodge, Balgownie Dr, Aberdeen AB22 8GU, Royaume-Uni",
    "Country": "Scotland",
    "List of Events": "",
    "Latitude": 57.179531,
    "Longitude": -2.1103882
  },
  {
    "Name": "Make Aberdeen",
    "City": "Aberdeen",
    "Catégorie": "",
    "VulcaTour-step": "01.07",
    "Vulca-tour": "VT01",
    "Link of the Logo": "https://drive.google.com/uc?id=15BawBGg8p50vLJq-tzjv_T5pSK3mEE7T",
    "Location": "17 Belmont St, Aberdeen AB10 1JR, Royaume-Uni",
    "Country": "Scotland",
    "List of Events": "",
    "Latitude": 57.1465936,
    "Longitude": -2.101507
  },
  {
    "Name": "Dundee Makerspace",
    "City": "Dundee",
    "Catégorie": "",
    "VulcaTour-step": "09.17",
    "Vulca-tour": "VT09",
    "Link of the Logo": "https://drive.google.com/uc?id=1c-ZHVqZuyoWFm7pcIqRmcGgXklKYI9kw",
    "Location": "Dundee MakerSpace Ltd, Densfield Works, Block 4, N Isla St, Dundee DD3 7JQ, Royaume-Uni",
    "Country": "Scotland",
    "List of Events": "",
    "Latitude": 56.4742307,
    "Longitude": -2.9720143
  },
  {
    "Name": "Edinburgh Hacklab",
    "City": "Edinburgh",
    "Catégorie": "",
    "VulcaTour-step": "09.18",
    "Vulca-tour": "VT09",
    "Link of the Logo": "",
    "Location": "1 Summerhall Square, Newington, Edinburgh EH9 1PL, Royaume-Uni",
    "Country": "Scotland",
    "List of Events": "",
    "Latitude": 55.9394217,
    "Longitude": -3.1818541
  },
  {
    "Name": "T-Exchange Makerspace",
    "City": "Findhorn",
    "Catégorie": "",
    "VulcaTour-step": "09.15",
    "Vulca-tour": "VT09",
    "Link of the Logo": "https://drive.google.com/uc?id=1obOVcpCubE-LkSuBt3-WYCpv1CP5LtM3",
    "Location": "The Findhorn Village Centre, Findhorn, Forres IV36 3YR, Royaume-Uni",
    "Country": "Scotland",
    "List of Events": "",
    "Latitude": 57.6576337,
    "Longitude": -3.6076485
  },
  {
    "Name": "Aalto Fablab",
    "City": "Helsinki",
    "Catégorie": "",
    "VulcaTour-step": "02.11",
    "Vulca-tour": "VT02",
    "Link of the Logo": "https://drive.google.com/uc?id=1N2vTVJEg8MRt9yEOPaLecPGRPP5xydLG",
    "Location": "Magneettitalo, Otakaari 7, 02150 Espoo, Finlande",
    "Country": "Finland",
    "List of Events": "",
    "Latitude": 60.1889855,
    "Longitude": 24.8332643
  },
  {
    "Name": "Algarve FabFarm",
    "City": "Barão de São João",
    "Catégorie": "",
    "VulcaTour-step": "07.15",
    "Vulca-tour": "VT07,VT13",
    "Link of the Logo": "https://drive.google.com/uc?id=1vLy7vNBpsap3M19doVVY6fsdfiECjx-D",
    "Location": "Barão de São João, Portugal",
    "Country": "Portugal",
    "List of Events": "",
    "Latitude": 37.1384597,
    "Longitude": -8.7769008
  },
  {
    "Name": "Associação de Informática de Castelo Branco",
    "City": "Castel Branco",
    "Catégorie": "",
    "VulcaTour-step": "13.36,07.13",
    "Vulca-tour": "VT13",
    "Link of the Logo": "https://drive.google.com/uc?id=10OVzgdMPbD5HQ6SC_X305gwzDjHVLn_J",
    "Location": "No place yet",
    "Country": "Portugal",
    "List of Events": "",
    "Latitude": 39.9767583,
    "Longitude": -7.4460599
  },
  {
    "Name": "Buihno Creative Hubs",
    "City": "Messejana",
    "Catégorie": "",
    "VulcaTour-step": 13.23,
    "Vulca-tour": "VT07,VT13",
    "Link of the Logo": "https://drive.google.com/uc?id=10PmX1SDHf08b4TbwICJ7VP9eTYFILsJx",
    "Location": "Rua Nova de São Brás 43, 7600-346 Messejana, Portugal",
    "Country": "Portugal",
    "List of Events": "",
    "Latitude": 37.8311427,
    "Longitude": -8.2454773
  },
  {
    "Name": "EDP FabLab",
    "City": "Sasavem",
    "Catégorie": "",
    "VulcaTour-step": "07.23",
    "Vulca-tour": "VT07",
    "Link of the Logo": "https://drive.google.com/uc?id=1MvvXrxqWRzBVscaBijbGw6WrFxf5tmfj",
    "Location": "R. Cidade de Goa 4, 2685-038 Sacavém, Portugal",
    "Country": "Portugal",
    "List of Events": "",
    "Latitude": 38.7838544,
    "Longitude": -9.1036403
  },
  {
    "Name": "Fab Lab Aldeias do Xisto",
    "City": "Fundao",
    "Catégorie": "",
    "VulcaTour-step": "07.12,13.37",
    "Vulca-tour": "VT07,VT13",
    "Link of the Logo": "https://drive.google.com/uc?id=1PYhQwX7DzcrS3Cl0Tw1mxP4JYCNt2Vy_",
    "Location": "R. dos Três Lagares 60, 6230-378",
    "Country": "Portugal",
    "List of Events": "",
    "Latitude": 40.1371598,
    "Longitude": -7.5011637
  },
  {
    "Name": "Fablab Aberto",
    "City": "Terra Vera",
    "Catégorie": "",
    "VulcaTour-step": 13.28,
    "Vulca-tour": "VT13",
    "Link of the Logo": "https://drive.google.com/uc?id=1H2a_0mHDfkMQccpArcdXFLmZS1dy7eH6",
    "Location": "R. Serpa Pinto 3, Torres Vedras, Lisboa, 2560-661, Portugal",
    "Country": "Portugal",
    "List of Events": "",
    "Latitude": 39.091758,
    "Longitude": -9.2593953
  },
  {
    "Name": "Fablab Benfica",
    "City": "Benfica",
    "Catégorie": "",
    "VulcaTour-step": "13.31,07.22",
    "Vulca-tour": "VT07,VT13",
    "Link of the Logo": "https://drive.google.com/uc?id=1BuaSkjHoBNnjecsmEmtMY2MpWjc-6iyg",
    "Location": "Escola Superior de Educação de Lisboa, Campus de Benfica do IPL, 1549-003, Lisboa, Portugal",
    "Country": "Portugal",
    "List of Events": "",
    "Latitude": 38.7459501,
    "Longitude": -9.1951505
  },
  {
    "Name": "Fablab Cascais",
    "City": "Cascais",
    "Catégorie": "",
    "VulcaTour-step": 13.27,
    "Vulca-tour": "VT13",
    "Link of the Logo": "https://drive.google.com/uc?id=1gXk1ZYEiq-dz8EpCeG88sFHr0o2T9hRH",
    "Location": "Rua Piaget, Loja 142 – A, Adroana, 2645-626 Alcabideche",
    "Country": "Portugal",
    "List of Events": "",
    "Latitude": 38.7463104,
    "Longitude": -9.3799641
  },
  {
    "Name": "Fablab Coimbra",
    "City": "Coimbra",
    "Catégorie": "",
    "VulcaTour-step": 13.38,
    "Vulca-tour": "VT13",
    "Link of the Logo": "https://drive.google.com/uc?id=1anTyPYG9K65d4UrOJJYkSXkh5aBW8Wi5",
    "Location": "R. Cel. Júlio Veiga Simão, 3025-307 Coimbra, Portugal",
    "Country": "Portugal",
    "List of Events": "",
    "Latitude": 40.2281176,
    "Longitude": -8.4407789
  },
  {
    "Name": "FabLab FCT",
    "City": "Caparica",
    "Catégorie": "",
    "VulcaTour-step": "07.24",
    "Vulca-tour": "VT07",
    "Link of the Logo": "https://drive.google.com/uc?id=1v-dAK4KQ3p6HhNBn_B0IuWbq4XP1dtpz",
    "Location": "Calçada de Alfazina 2, 2825-149 Caparica, Portugal",
    "Country": "Portugal",
    "List of Events": "",
    "Latitude": 38.6732503,
    "Longitude": -9.1875848
  },
  {
    "Name": "FabLab Guarda",
    "City": "Guarda",
    "Catégorie": "",
    "VulcaTour-step": "07.11",
    "Vulca-tour": "VT07",
    "Link of the Logo": "https://drive.google.com/uc?id=1KbhtbFzE55t3SEKbJg2iSPEzCjy3Y_-0",
    "Location": "Av. Dr. Francisco Sá Carneiro 50, 6300-035 Guarda, Portugal",
    "Country": "Portugal",
    "List of Events": "",
    "Latitude": 40.5379167,
    "Longitude": -7.2842841
  },
  {
    "Name": "Fablab Sintra",
    "City": "Sintra",
    "Catégorie": "",
    "VulcaTour-step": 13.26,
    "Vulca-tour": "VT13",
    "Link of the Logo": "https://drive.google.com/uc?id=12B4e6rEeVRw1OeOm3SWl1FpEeGIYD8B2",
    "Location": "Largo Padre Américo 10 Sub Cave, 2745-712 Queluz, Portugal",
    "Country": "Portugal",
    "List of Events": "",
    "Latitude": 38.7515186,
    "Longitude": -9.2819808
  },
  {
    "Name": "Viva Lab",
    "City": "Porto",
    "Catégorie": "",
    "VulcaTour-step": "13.39,07.08",
    "Vulca-tour": "VT07,VT13",
    "Link of the Logo": "https://drive.google.com/uc?id=1gK8Uez44OMxSFWhmVtXYNuEdAtvOCFlZ",
    "Location": "R. de Pedro Hispano 407, 4100-394 Porto, Portugal",
    "Country": "Portugal",
    "List of Events": "",
    "Latitude": 41.1620126,
    "Longitude": -8.6373376
  },
  {
    "Name": "Porto Design Factory",
    "City": "Porto",
    "Catégorie": "",
    "VulcaTour-step": "07.10",
    "Vulca-tour": "VT07",
    "Link of the Logo": "https://drive.google.com/uc?id=1wTuYWxFiy1-vZzetsuhNjq-M-5J4HZlh",
    "Location": "Porto Design Factory, Rua Arquitecto Lobão Vital, 4200-374 Porto, Portugal",
    "Country": "Portugal",
    "List of Events": "",
    "Latitude": 41.1763153,
    "Longitude": -8.6054163
  },
  {
    "Name": "OpoLab",
    "City": "Porto",
    "Catégorie": "",
    "VulcaTour-step": "07.09",
    "Vulca-tour": "VT07",
    "Link of the Logo": "https://drive.google.com/uc?id=10lmSi1z8ZLlDlZMhEG6JjmxfaU9ndE87",
    "Location": "R. de Dom João IV 643, 4000-035 Porto, Portugal",
    "Country": "Portugal",
    "List of Events": "",
    "Latitude": 41.1523109,
    "Longitude": -8.6024109
  },
  {
    "Name": "Fabrica Moderna",
    "City": "Porto",
    "Catégorie": "",
    "VulcaTour-step": "07.19",
    "Vulca-tour": "VT07",
    "Link of the Logo": "https://drive.google.com/uc?id=1wT0S2OXt3KibUWxXr43W8bj0aQ3gBwin",
    "Location": "R. Pereira Henriques 24, 1950-242 Lisboa, Portugal",
    "Country": "Portugal",
    "List of Events": "",
    "Latitude": 38.7410401,
    "Longitude": -9.1037954
  },
  {
    "Name": "FAZMOR",
    "City": "Castel Branca",
    "Catégorie": "",
    "VulcaTour-step": 13.33,
    "Vulca-tour": "VT13",
    "Link of the Logo": "https://drive.google.com/uc?id=1_s8e2JsEEaf5qcD8_POcLjWwjWlGjraI",
    "Location": "Casa Branca, Montemor-o-Novo, Portugal",
    "Country": "Portugal",
    "List of Events": "",
    "Latitude": 38.4987711,
    "Longitude": -8.1590234
  },
  {
    "Name": "Human That Makes",
    "City": "Barreiro",
    "Catégorie": "",
    "VulcaTour-step": 13.32,
    "Vulca-tour": "VT13",
    "Link of the Logo": "https://drive.google.com/uc?id=1qv88ESdSbFeGVc9KLQXQSKJvLdaZRDeP",
    "Location": "R. Resistentes Anti-Fascistas 27, 2830-523 Barreiro",
    "Country": "Portugal",
    "List of Events": "",
    "Latitude": 38.6632726,
    "Longitude": -9.0576799
  },
  {
    "Name": "Oficinas do Convento",
    "City": "Montemor-o-Novo",
    "Catégorie": "",
    "VulcaTour-step": 13.34,
    "Vulca-tour": "VT13",
    "Link of the Logo": "https://drive.google.com/uc?id=12QulN-sn1HV0NUcsEVeE_1HzOQs-YpB6",
    "Location": "Convento de S. Francisco, Carreira de S. Francisco, 7050-160 Montemor-o-Novo, Portugal",
    "Country": "Portugal",
    "List of Events": "",
    "Latitude": 38.6494649,
    "Longitude": -8.2106455
  },
  {
    "Name": "Oficinas Makerspace Almaderia",
    "City": "Almada",
    "Catégorie": "",
    "VulcaTour-step": "13.24,07.20",
    "Vulca-tour": "VT07,VT13",
    "Link of the Logo": "https://drive.google.com/uc?id=1mVCqKakJrTPBIk8wd_aQz16J2ncx3hX8",
    "Location": "R. Carvalho Serra nº38-A, 2800-044 Almada, Portugal",
    "Country": "Portugal",
    "List of Events": "",
    "Latitude": 38.6827752,
    "Longitude": -9.1568014
  },
  {
    "Name": "Makers In Little Lisbon",
    "City": "Lisbon",
    "Catégorie": "",
    "VulcaTour-step": "13.25,07.17",
    "Vulca-tour": "VT07,VT13",
    "Link of the Logo": "https://drive.google.com/uc?id=1Dyr6pQUcuNogT5lln_J2h4nzP-DNIG8C",
    "Location": "Calçada Moinho de Vento 14B, 1150-236 Lisboa, Portugal",
    "Country": "Portugal",
    "List of Events": "",
    "Latitude": 38.7204282,
    "Longitude": -9.1410016
  },
  {
    "Name": "AltLab Hackerspace",
    "City": "Lisbon",
    "Catégorie": "",
    "VulcaTour-step": "07.18",
    "Vulca-tour": "VT07,VT13",
    "Link of the Logo": "https://drive.google.com/uc?id=1fNQk1BLEZGDaiBGF_WJQJibYWp_cSJpa",
    "Location": "Mercado Do Forno do Tijolo, R. Maria da Fonte, 1170-221 Lisboa, Portugal",
    "Country": "Portugal",
    "List of Events": "",
    "Latitude": 38.7224661,
    "Longitude": -9.1325355
  },
  {
    "Name": "Vitruvius FabLab",
    "City": "Lisbon",
    "Catégorie": "",
    "VulcaTour-step": "07.21",
    "Vulca-tour": "VT07",
    "Link of the Logo": "https://drive.google.com/uc?id=1slZ_1vZM3ZiOR7iPrDrNaX3Elg4_xEZh",
    "Location": "Av. das Forças Armadas, Lisboa, Portugal",
    "Country": "Portugal",
    "List of Events": "",
    "Latitude": 38.7458928,
    "Longitude": -9.1599782
  },
  {
    "Name": "Fablab Lisboa",
    "City": "Lisbon",
    "Catégorie": "",
    "VulcaTour-step": "13.29,07.16",
    "Vulca-tour": "VT13,VT07",
    "Link of the Logo": "https://drive.google.com/uc?id=1WqlGkaJRKoILJBTIT2aFsNCfUkpKlH1N",
    "Location": "Mercado Do Forno do Tijolo, R. Maria da Fonte, 1170-221 Lisboa, Portugal",
    "Country": "Portugal",
    "List of Events": "",
    "Latitude": 38.7224661,
    "Longitude": -9.1325355
  },
  {
    "Name": "Arnhem Hackerspace",
    "City": "Arnhem",
    "Catégorie": "",
    "VulcaTour-step": 12.05,
    "Vulca-tour": "VT12",
    "Link of the Logo": "https://drive.google.com/uc?id=1gYurly2w_rzsXgsmGBhQiW5CACsn1V9b",
    "Location": "Cruquiusweg 3, 6827 BL Arnhem, Pays-Bas",
    "Country": "Netherlands",
    "List of Events": "",
    "Latitude": 51.9773053,
    "Longitude": 5.940391
  },
  {
    "Name": "European Ceramic work center Fablab",
    "City": "Oisterwijk",
    "Catégorie": "",
    "VulcaTour-step": 12.11,
    "Vulca-tour": "VT12",
    "Link of the Logo": "https://drive.google.com/uc?id=1hNZgkAw_tr2Rn0S17NidVco6grbL4dI5",
    "Location": "Almystraat 10, 5061 PA Oisterwijk, Pays-Bas",
    "Country": "Netherlands",
    "List of Events": "",
    "Latitude": 51.5811823,
    "Longitude": 5.1885939
  },
  {
    "Name": "Fablab 013 Stichting",
    "City": "Tilburg",
    "Catégorie": "",
    "VulcaTour-step": "03.23,12.12",
    "Vulca-tour": "VT03,VT12",
    "Link of the Logo": "https://drive.google.com/uc?id=1eK_pjW6t1mHvdBl6mVdaNKFeUQL2kANP",
    "Location": "Hal 553 Groenstraat 139, 5021 LL Tilburg, Pays-Bas",
    "Country": "Netherlands",
    "List of Events": "",
    "Latitude": 51.5464683,
    "Longitude": 5.0909678
  },
  {
    "Name": "Fablab Amersfoort",
    "City": "Amersfoort",
    "Catégorie": "",
    "VulcaTour-step": "03.20",
    "Vulca-tour": "VT03",
    "Link of the Logo": "https://drive.google.com/uc?id=1hZCbkgA4qPR2JyUvMLeglJGriGWa34a_",
    "Location": "Geldersestraat 6, 3812 PP Amersfoort",
    "Country": "Netherlands",
    "List of Events": "",
    "Latitude": 52.16265,
    "Longitude": 5.376919
  },
  {
    "Name": "Frysklab",
    "City": "Leeuwarden",
    "Catégorie": "",
    "VulcaTour-step": 12.06,
    "Vulca-tour": "VT12",
    "Link of the Logo": "https://drive.google.com/uc?id=1DfGCU4I6XeCaIFZkvYr_xrgGewdIHJd5",
    "Location": "Zuiderkruisweg 4, 8938 AP Leeuwarden, Pays-Bas",
    "Country": "Netherlands",
    "List of Events": "",
    "Latitude": 53.1935083,
    "Longitude": 5.845365
  },
  {
    "Name": "Frack Hackerspace",
    "City": "Leeuwarden",
    "Catégorie": "",
    "VulcaTour-step": 12.07,
    "Vulca-tour": "VT12",
    "Link of the Logo": "https://drive.google.com/uc?id=1aIQij9sg0Mqfd4pZVikvo9OKm4yra27l",
    "Location": "Cornelis Trooststraat 48, 8932 BR Leeuwarden, Pays-Bas",
    "Country": "Netherlands",
    "List of Events": "",
    "Latitude": 53.1905748,
    "Longitude": 5.786193
  },
  {
    "Name": "Junior IOT",
    "City": "Alkmaar",
    "Catégorie": "",
    "VulcaTour-step": 12.09,
    "Vulca-tour": "VT12",
    "Link of the Logo": "https://drive.google.com/uc?id=1g18XGxkYVV-UYhpkNk-x-KB7ipoeoRAi",
    "Location": "Pettemerstraat 15 Achter op evenemententerrein naast Hal25, 1823 CW Alkmaar, Pays-Bas",
    "Country": "Netherlands",
    "List of Events": "",
    "Latitude": 52.6377321,
    "Longitude": 4.7504561
  },
  {
    "Name": "Kaasfabriek",
    "City": "Alkmaar",
    "Catégorie": "",
    "VulcaTour-step": "12.08,03.19",
    "Vulca-tour": "VT12,VT03",
    "Link of the Logo": "https://drive.google.com/uc?id=14OgZghSbGqY4W6R1-rDyHv2sqxo3l_gn",
    "Location": "Pettemerstraat 15, 1823 CW Alkmaar, Pays-Bas",
    "Country": "Netherlands",
    "List of Events": "",
    "Latitude": 52.6380895,
    "Longitude": 4.7502926
  },
  {
    "Name": "MAD emergent art center",
    "City": "Eindhoven",
    "Catégorie": "",
    "VulcaTour-step": 12.04,
    "Vulca-tour": "VT12",
    "Link of the Logo": "https://drive.google.com/uc?id=1nLWBuz0v9EJm8nszxx1HOhFiFx0RRKd0",
    "Location": "Von Flotowlaan 1, 5653 AD Eindhoven, Pays-Bas",
    "Country": "Netherlands",
    "List of Events": "",
    "Latitude": 51.4293347,
    "Longitude": 5.4576486
  },
  {
    "Name": "Protospace",
    "City": "Utrecht",
    "Catégorie": "",
    "VulcaTour-step": "03.16",
    "Vulca-tour": "VT03",
    "Link of the Logo": "https://drive.google.com/uc?id=147xkpQh2Yg9ZBbHPadv-ETCvYBsxPWBu",
    "Location": "Padualaan 99, 3584 CH Utrecht, Pays-Bas",
    "Country": "Netherlands",
    "List of Events": "",
    "Latitude": 52.0844714,
    "Longitude": 5.1687664
  },
  {
    "Name": "Mini Fablab",
    "City": "Utrecht",
    "Catégorie": "",
    "VulcaTour-step": "03.15",
    "Vulca-tour": "VT03",
    "Link of the Logo": "https://drive.google.com/uc?id=1QgyrBLAmf6CqUQd-bOZMeq5Hd7zLwOgk",
    "Location": "Nobeldwarsstraat 33, 3512 EW Utrecht, Pays-Bas",
    "Country": "Netherlands",
    "List of Events": "",
    "Latitude": 52.0919506,
    "Longitude": 5.1265767
  },
  {
    "Name": "PlugnMake",
    "City": "Delft",
    "Catégorie": "",
    "VulcaTour-step": "12.10,03.21",
    "Vulca-tour": "VT12,VT03",
    "Link of the Logo": "https://drive.google.com/uc?id=16E5huEZ4txgA6L97Mq0HEd2QJZRpRLGZ",
    "Location": "Staalweg 1, 2612 KK Delft, Pays-Bas",
    "Country": "Netherlands",
    "List of Events": "",
    "Latitude": 52.0122737,
    "Longitude": 4.3743381
  },
  {
    "Name": "Stadslab",
    "City": "Roterdam",
    "Catégorie": "",
    "VulcaTour-step": "03.22",
    "Vulca-tour": "VT03",
    "Link of the Logo": "https://drive.google.com/uc?id=1__O-jKB6JwZNgAFOtoL_zdJxytaRHi6Z",
    "Location": "Wijnhaven 99, 3011 WN Rotterdam, Pays-Bas",
    "Country": "Netherlands",
    "List of Events": "",
    "Latitude": 51.9174221,
    "Longitude": 4.4848354
  },
  {
    "Name": "WowLab",
    "City": "Enshede",
    "Catégorie": "",
    "VulcaTour-step": "03.14",
    "Vulca-tour": "VT03",
    "Link of the Logo": "https://drive.google.com/uc?id=1CXPK_snhLHJwbgctWZD77m5dBSAjSMVy",
    "Location": "Stroinksbleekweg 4, 7523 ZL Enschede, Pays-Bas",
    "Country": "Netherlands",
    "List of Events": "",
    "Latitude": 52.231866,
    "Longitude": 6.894409
  },
  {
    "Name": "Base 48 Hackerspace",
    "City": "Brno",
    "Catégorie": "",
    "VulcaTour-step": "08.29",
    "Vulca-tour": "VT08",
    "Link of the Logo": "https://drive.google.com/uc?id=1MJWpe1lETg52m3V3lLxiju1gTAv0YCFf",
    "Location": "Čápkova 543/48, 602 00 Brno-střed-Veveří, Tchéquie",
    "Country": "Czech Republic",
    "List of Events": "",
    "Latitude": 49.2041388,
    "Longitude": 16.5943792
  },
  {
    "Name": "Brno FabLab",
    "City": "Brno",
    "Catégorie": "",
    "VulcaTour-step": "04.02",
    "Vulca-tour": "VT04,VT08",
    "Link of the Logo": "https://drive.google.com/uc?id=1sS4DYVtCY1eAjqhQZMn0sKfokxudql9a",
    "Location": "Purkyňova 649/127, 621 00 Brno-Medlánky, Tchéquie",
    "Country": "Czech Republic",
    "List of Events": "",
    "Latitude": 49.2341874,
    "Longitude": 16.5747368
  },
  {
    "Name": "Industra Lab",
    "City": "Brno",
    "Catégorie": "",
    "VulcaTour-step": "08.28,15.10",
    "Vulca-tour": "VT08,VT15",
    "Link of the Logo": "https://drive.google.com/uc?id=1c8X6pIJa37yvHc2yFP41t76Z4DUwDNdI",
    "Location": "Masná 9, 602 00 Brno-jih-Trnitá, Tchéquie",
    "Country": "Czech Republic",
    "List of Events": "",
    "Latitude": 49.1829682,
    "Longitude": 16.6270453
  },
  {
    "Name": "STROJ Lab",
    "City": "Brno",
    "Catégorie": "",
    "VulcaTour-step": "08.26",
    "Vulca-tour": "VT08",
    "Link of the Logo": "https://drive.google.com/uc?id=1dxUMUwbWvmw6Bs8DG6WmiXJbqvCpXa1O",
    "Location": "Faculty of Mechanical Engineering,Technická 2896/2, 616 69 Brno",
    "Country": "Czech Republic",
    "List of Events": "",
    "Latitude": 49.2243062,
    "Longitude": 16.5765321
  },
  {
    "Name": "FutLab: Makerspace Praha",
    "City": "Praha",
    "Catégorie": "",
    "VulcaTour-step": "10.10,08.18",
    "Vulca-tour": "VT10,VT08",
    "Link of the Logo": "https://drive.google.com/uc?id=1fUPnMgVJx34_5EpQQN14jhTG4HcYXyfb",
    "Location": "Pod Kapličkou 3155/20, 130 00 Strašnice, Tchéquie",
    "Country": "Czech Republic",
    "List of Events": "",
    "Latitude": 50.0816913,
    "Longitude": 14.480568
  },
  {
    "Name": "BRMLAB Hackerspace",
    "City": "Praha",
    "Catégorie": "",
    "VulcaTour-step": "08.17",
    "Vulca-tour": "VT08",
    "Link of the Logo": "https://drive.google.com/uc?id=1i6n2-0lHL9mK0xHSay9bpRqbgUtz4Smn",
    "Location": "3155/20 Strašnice Prag CZ, Pod Kapličkou, 130 00 Strašnice, Tchéquie",
    "Country": "Czech Republic",
    "List of Events": "",
    "Latitude": 50.0834278,
    "Longitude": 14.4799671
  },
  {
    "Name": "Takt",
    "City": "Praha",
    "Catégorie": "",
    "VulcaTour-step": 15.15,
    "Vulca-tour": "VT15",
    "Link of the Logo": "https://drive.google.com/uc?id=1Q55XJwEpW2VubONFr8grNB9IoYSBPOaU",
    "Location": "Jeseniova 212, 130 00 Praha 3, Tchéquie",
    "Country": "Czech Republic",
    "List of Events": "",
    "Latitude": 50.0919761,
    "Longitude": 14.4830559
  },
  {
    "Name": "The cave Praha",
    "City": "Praha",
    "Catégorie": "",
    "VulcaTour-step": "08.16",
    "Vulca-tour": "VT08",
    "Link of the Logo": "https://drive.google.com/uc?id=198q0h8u_0p1PsPQXGdPD_piV9YP4NnPU",
    "Location": "J. Masaryka 150, 120 00 Vinohrady, Tchéquie",
    "Country": "Czech Republic",
    "List of Events": "",
    "Latitude": 50.0725668,
    "Longitude": 14.4402528
  },
  {
    "Name": "Prusa Lab",
    "City": "Praha",
    "Catégorie": "",
    "VulcaTour-step": "08.15",
    "Vulca-tour": "VT08",
    "Link of the Logo": "https://drive.google.com/uc?id=1Z-fqJmK65XR0Dv2QXqM9DtCp8_VNl_Cw",
    "Location": "Partyzánská 188/7A, 170 00 Praha 7-Holešovice, Tchéquie",
    "Country": "Czech Republic",
    "List of Events": "",
    "Latitude": 50.109052,
    "Longitude": 14.4370862
  },
  {
    "Name": "DEPO 2015 Makerspace",
    "City": "Plzen",
    "Catégorie": "",
    "VulcaTour-step": "08.14",
    "Vulca-tour": "VT08",
    "Link of the Logo": "https://drive.google.com/uc?id=1R8QqOmhdu8LA9HCx7Fq95cI964PJI6qQ",
    "Location": "Presslova 14, 301 00 Plzeň 3-Jižní Předměstí, Tchéquie",
    "Country": "Czech Republic",
    "List of Events": "",
    "Latitude": 49.7383154,
    "Longitude": 13.3815965
  },
  {
    "Name": "BIERZO MAKERS",
    "City": "Ponferrada",
    "Catégorie": "",
    "VulcaTour-step": 13.42,
    "Vulca-tour": "VT13",
    "Link of the Logo": "https://drive.google.com/uc?id=16loc8RsV3A-zOtKgD_teco1QgwGQoi4S",
    "Location": "Av. de la Libertad, 46, 24404 Ponferrada, León",
    "Country": "Spain",
    "List of Events": "",
    "Latitude": 42.554565,
    "Longitude": -6.5960551
  },
  {
    "Name": "Bricolabs",
    "City": "A Coruna",
    "Catégorie": "",
    "VulcaTour-step": 13.41,
    "Vulca-tour": "VT13",
    "Link of the Logo": "https://drive.google.com/uc?id=1GMUC07Tuzl__kxftlBE1WaEkZt0wMToS",
    "Location": "A, R. Ángel Rebollo, 91, 15002 A Coruña",
    "Country": "Spain",
    "List of Events": "",
    "Latitude": 43.37757,
    "Longitude": -8.4065999
  },
  {
    "Name": "Fablab Barcelona",
    "City": "Barcelona",
    "Catégorie": "",
    "VulcaTour-step": "07.34,13.11",
    "Vulca-tour": "VT07,VT13",
    "Link of the Logo": "https://drive.google.com/uc?id=1P51ktX-LBEqJocNLANrCk3FSWtfxR2IO",
    "Location": "Fab Lab Barcelona, Carrer de Pujades, 102, 08002 Barcelona, Spain",
    "Country": "Spain",
    "List of Events": "",
    "Latitude": 41.3967077,
    "Longitude": 2.1943137
  },
  {
    "Name": "Made Makerspace",
    "City": "Barcelona",
    "Catégorie": "",
    "VulcaTour-step": "07.35",
    "Vulca-tour": "VT07",
    "Link of the Logo": "https://drive.google.com/uc?id=1ruU-EacoB74LVVGKJR6wtjE7PuOertot",
    "Location": "Carrer de la Noguera Pallaresa, 08014 Barcelona, Espagne",
    "Country": "Spain",
    "List of Events": "",
    "Latitude": 41.3724087,
    "Longitude": 2.1393657
  },
  {
    "Name": "Valldaura Green Fab",
    "City": "Barcelona",
    "Catégorie": "",
    "VulcaTour-step": "07.37",
    "Vulca-tour": "VT07",
    "Link of the Logo": "https://drive.google.com/uc?id=1gnjHE2sn-dqh3fzhOJWCwsw2wjs11GIH",
    "Location": "BV-1415, Barcelona, Espagne",
    "Country": "Spain",
    "List of Events": "",
    "Latitude": 41.4478514,
    "Longitude": 2.1349221
  },
  {
    "Name": "FabCafé Barcelona",
    "City": "Barcelona",
    "Catégorie": "",
    "VulcaTour-step": "07.33",
    "Vulca-tour": "VT07",
    "Link of the Logo": "https://drive.google.com/uc?id=10ZuWot6Nm2r-BN33lEM9TDitQ-HcdwOe",
    "Location": "Carrer de Bailèn, 11, 08010 Barcelona, Espagne",
    "Country": "Spain",
    "List of Events": "",
    "Latitude": 41.391668,
    "Longitude": 2.1770715
  },
  {
    "Name": "Citi Lab",
    "City": "Barcelona",
    "Catégorie": "",
    "VulcaTour-step": "07.36",
    "Vulca-tour": "VT07",
    "Link of the Logo": "https://drive.google.com/uc?id=1wpLnbIsa7lAWL-uGkJ3dIFinLAnE2BfY",
    "Location": "Plaça de Can Suris, s/n, 08940 Cornellà de Llobregat, Barcelona, Espagne",
    "Country": "Spain",
    "List of Events": "",
    "Latitude": 41.3599533,
    "Longitude": 2.0619671
  },
  {
    "Name": "Sokotech Barcelona",
    "City": "Barcelona",
    "Catégorie": "",
    "VulcaTour-step": "07.38",
    "Vulca-tour": "VT07",
    "Link of the Logo": "https://drive.google.com/uc?id=1NUnEu-phwOqx_sPxVGWlvrQqPhNnReM3",
    "Location": "Carrer de Vallès i Ribot, 36, 08027 Barcelona, Espagne",
    "Country": "Spain",
    "List of Events": "",
    "Latitude": 41.4243504,
    "Longitude": 2.1888826
  },
  {
    "Name": "Club Robótica Granada",
    "City": "Granada",
    "Catégorie": "",
    "VulcaTour-step": 13.18,
    "Vulca-tour": "VT13",
    "Link of the Logo": "https://drive.google.com/uc?id=1tFRuEuC5mNAZxyTHryBO8e8FYxoDJjT1",
    "Location": "Avenida de la Ciencia, 18006 Grenade, Espagne",
    "Country": "Spain",
    "List of Events": "",
    "Latitude": 37.162032,
    "Longitude": -3.6066054
  },
  {
    "Name": "Espacio Open",
    "City": "Bilbao",
    "Catégorie": "",
    "VulcaTour-step": 13.47,
    "Vulca-tour": "VT13",
    "Link of the Logo": "https://drive.google.com/uc?id=1_I4nELcHsrl-KmFqrO2zwi-jmLSBvZOE",
    "Location": "Deustuibarra, 70A, 48014 Bilbo, Bizkaia",
    "Country": "Spain",
    "List of Events": "",
    "Latitude": 43.2690787,
    "Longitude": -2.9624021
  },
  {
    "Name": "FabLab Burgos",
    "City": "Burgos",
    "Catégorie": "",
    "VulcaTour-step": "07.06",
    "Vulca-tour": "VT07",
    "Link of the Logo": "https://drive.google.com/uc?id=1z8VQohjxOp1hXTTNMoo-iP_O0fY8jmPj",
    "Location": "Dr. José Luis Santamaría s/n - La Estación, 09001 Burgos, Espagne",
    "Country": "Spain",
    "List of Events": "",
    "Latitude": 42.3344946,
    "Longitude": -3.7077825
  },
  {
    "Name": "Fablab Cuenca",
    "City": "Cuenca",
    "Catégorie": "",
    "VulcaTour-step": "13.15,07.29",
    "Vulca-tour": "VT13,VT07",
    "Link of the Logo": "https://drive.google.com/uc?id=1EwbARvlDylFsLFe5e8zAh1Tl_SoZ0kFy",
    "Location": "Plaza Romero, 2, 16004 Cuenca",
    "Country": "Spain",
    "List of Events": "",
    "Latitude": 40.0670815,
    "Longitude": -2.1340672
  },
  {
    "Name": "Hiriki-Labs",
    "City": "St. Sebastian",
    "Catégorie": "",
    "VulcaTour-step": "07.05",
    "Vulca-tour": "VT07",
    "Link of the Logo": "https://drive.google.com/uc?id=1KCGgXAL2067wmPvtpVzo8ar9OnKmKCPW",
    "Location": "Plaza de las Cigarreras, 1, 20012 San Sebastián, Guipúzcoa, Espagne",
    "Country": "Spain",
    "List of Events": "",
    "Latitude": 43.316987,
    "Longitude": -1.976017
  },
  {
    "Name": "Fablab Donastia",
    "City": "St. Sebastian",
    "Catégorie": "",
    "VulcaTour-step": "07.04",
    "Vulca-tour": "VT07",
    "Link of the Logo": "https://drive.google.com/uc?id=1NliD89MuaBS_JVKR41KXtsGyhY-C7Ktx",
    "Location": "Plaza de Oñati, 1, 20018 Donostia, Gipuzkoa, Espagne",
    "Country": "Spain",
    "List of Events": "",
    "Latitude": 43.3108818,
    "Longitude": -2.010103
  },
  {
    "Name": "Fablab IED",
    "City": "Madrid",
    "Catégorie": "",
    "VulcaTour-step": "07.26",
    "Vulca-tour": "VT07",
    "Link of the Logo": "https://drive.google.com/uc?id=1lD3RNy2InYihXfaLaAjeXpEPGkz7JnuB",
    "Location": "Av. de Pedro Diez, 3, 28019 Madrid, Espagne",
    "Country": "Spain",
    "List of Events": "",
    "Latitude": 40.3905997,
    "Longitude": -3.7295064
  },
  {
    "Name": "MakeSpace MAdrid",
    "City": "Madrid",
    "Catégorie": "",
    "VulcaTour-step": "07.28",
    "Vulca-tour": "VT07",
    "Link of the Logo": "https://drive.google.com/uc?id=1q4oS8tkO00V98AznrPEtbqMIUzHWF5iS",
    "Location": "Calle Arquitectura, 18, 28005 Madrid, Espagne",
    "Country": "Spain",
    "List of Events": "",
    "Latitude": 40.399211,
    "Longitude": -3.7022881
  },
  {
    "Name": "MediaLab Prado",
    "City": "Madrid",
    "Catégorie": "",
    "VulcaTour-step": "07.27",
    "Vulca-tour": "VT07",
    "Link of the Logo": "https://drive.google.com/uc?id=1LpA1TtgzWqbISYCZiu0ngxFWZNO1LAyY",
    "Location": "Calle de la Alameda, 15, 28014 Madrid, Espagne",
    "Country": "Spain",
    "List of Events": "",
    "Latitude": 40.4105204,
    "Longitude": -3.6935854
  },
  {
    "Name": "Fablab Leon",
    "City": "Leon",
    "Catégorie": "",
    "VulcaTour-step": "13.43,07.07",
    "Vulca-tour": "VT13,VT07",
    "Link of the Logo": "https://drive.google.com/uc?id=1-ThIYO-PpsUO0-LrGfQtRgrDC-Xgu_GH",
    "Location": "Av. San Ignacio de Loyola, 177, 24191 San Andrés del Rabanedo, León",
    "Country": "Spain",
    "List of Events": "",
    "Latitude": 42.6110431,
    "Longitude": -5.597821
  },
  {
    "Name": "Fablab Sant Cugat",
    "City": "Sant Cugat",
    "Catégorie": "",
    "VulcaTour-step": "13.10,07.32",
    "Vulca-tour": "VT13,VT07",
    "Link of the Logo": "https://drive.google.com/uc?id=1yNUpA_vF5ns-sA1zpn5RDR4ftbW6wgcA",
    "Location": "Avinguda de la Torre Blanca, 57, 08172 Sant Cugat del Vallès, Barcelona, Spain",
    "Country": "Spain",
    "List of Events": "",
    "Latitude": 41.4670863,
    "Longitude": 2.0919417
  },
  {
    "Name": "Fablab Santander",
    "City": "Santander",
    "Catégorie": "",
    "VulcaTour-step": 13.46,
    "Vulca-tour": "VT13",
    "Link of the Logo": "https://drive.google.com/uc?id=17yBvOrLznkytY_-oyKPW10yJHbMl4V9k",
    "Location": "Calle Puente Viesgo, 39010 Santander, Cantabria",
    "Country": "Spain",
    "List of Events": "",
    "Latitude": 43.4587711,
    "Longitude": -3.8239032
  },
  {
    "Name": "Sevilla Makers Society",
    "City": "Sevilla",
    "Catégorie": "",
    "VulcaTour-step": 13.2,
    "Vulca-tour": "VT13",
    "Link of the Logo": "https://drive.google.com/uc?id=1NSqJqOpTPeKy01-UVcsqtSP60-1JzNHu",
    "Location": "Calle Alcázares, 9, 41003 Sevilla",
    "Country": "Spain",
    "List of Events": "",
    "Latitude": 37.3936406,
    "Longitude": -5.9907096
  },
  {
    "Name": "Tejares 11 Espacio Creativo",
    "City": "Sevilla",
    "Catégorie": "",
    "VulcaTour-step": 13.21,
    "Vulca-tour": "VT13",
    "Link of the Logo": "https://drive.google.com/uc?id=1HvJPG-IO-p39q2xAi_9-fEJXNCDtwXPY",
    "Location": "Calle Heliotropo, 4. Acc, 41003 Sevilla",
    "Country": "Spain",
    "List of Events": "",
    "Latitude": 37.396702,
    "Longitude": -5.9888192
  },
  {
    "Name": "Fablab Sevilla",
    "City": "Sevilla",
    "Catégorie": "",
    "VulcaTour-step": 13.19,
    "Vulca-tour": "VT13",
    "Link of the Logo": "https://drive.google.com/uc?id=11JwQ2l7MG-FLUStTutu9d4oK3hwnVgeD",
    "Location": "Av. de la Reina Mercedes, 2, 41012 Sevilla",
    "Country": "Spain",
    "List of Events": "",
    "Latitude": 37.362274,
    "Longitude": -5.9866797
  },
  {
    "Name": "Fablab Terassa",
    "City": "Terrassa",
    "Catégorie": "",
    "VulcaTour-step": "13.09,07.31",
    "Vulca-tour": "VT13,VT07",
    "Link of the Logo": "https://drive.google.com/uc?id=1M9ofATEp3vUUguaIZH5xiJjY1p-ybfXY",
    "Location": "Carrer de Colom, 1 08222 Tarrasa Barcelona",
    "Country": "Spain",
    "List of Events": "",
    "Latitude": 41.564098,
    "Longitude": 2.0223163
  },
  {
    "Name": "Oceano Naranja Fab Lab",
    "City": "Valencia",
    "Catégorie": "",
    "VulcaTour-step": 13.13,
    "Vulca-tour": "VT13",
    "Link of the Logo": "https://drive.google.com/uc?id=1iKVUZH_sWQ2MLKP7zvl0rqGMq-pe6_HC",
    "Location": "Carrer dels Botiguers, 5, 46120 Alboraia, Valencia, Spain",
    "Country": "Spain",
    "List of Events": "",
    "Latitude": 39.4991193,
    "Longitude": -0.3364659
  },
  {
    "Name": "Fablab VLC",
    "City": "Valencia",
    "Catégorie": "",
    "VulcaTour-step": 13.14,
    "Vulca-tour": "VT13",
    "Link of the Logo": "https://drive.google.com/uc?id=1vgC__k5gnZ9Qf11uxba6QT5Bx_R2MGX4",
    "Location": "Carrer dels Botiguers, 5, 46120 Alboraia, Valencia",
    "Country": "Spain",
    "List of Events": "",
    "Latitude": 39.4991193,
    "Longitude": -0.3364659
  },
  {
    "Name": "Fablab Xtrene",
    "City": "Alemendralejo",
    "Catégorie": "",
    "VulcaTour-step": "13.35,07.25",
    "Vulca-tour": "VT13,VT07",
    "Link of the Logo": "https://drive.google.com/uc?id=1E9M-7TYo0d_W_O5FLQ3Mu-WzggYyK23f",
    "Location": "Calle Rafael Alberti, 4, 06200 Almendralejo, Badajoz",
    "Country": "Spain",
    "List of Events": "",
    "Latitude": 38.678593,
    "Longitude": -6.4194992
  },
  {
    "Name": "Hackerspace Castellon",
    "City": "Castellón de la Plana",
    "Catégorie": "",
    "VulcaTour-step": 13.12,
    "Vulca-tour": "VT13",
    "Link of the Logo": "https://drive.google.com/uc?id=1MOZu6MYdORE8iO2d6SHoCGUW7z4Uwcag",
    "Location": "Espaitec I - Universitat Jaume I, Avinguda de Vicent Sos Baynat, s/n, 12071 Castellón de la Plana, Castellón",
    "Country": "Spain",
    "List of Events": "",
    "Latitude": 39.9945711,
    "Longitude": -0.0689003
  },
  {
    "Name": "Hacklab Almeria",
    "City": "Almeria",
    "Catégorie": "",
    "VulcaTour-step": 13.16,
    "Vulca-tour": "VT13",
    "Link of the Logo": "https://drive.google.com/uc?id=12OH01cvXF5U-0PBGls649uUyEjGR_eO3",
    "Location": "",
    "Country": "Spain",
    "List of Events": "",
    "Latitude": 36.841469,
    "Longitude": -2.464125
  },
  {
    "Name": "Industriosa Hackerspace",
    "City": "Vigo",
    "Catégorie": "",
    "VulcaTour-step": 13.4,
    "Vulca-tour": "VT13",
    "Link of the Logo": "https://drive.google.com/uc?id=14Sh0arc4j13EAZo4Kd9ZhPCu0tM0Lysp",
    "Location": "Rúa de Barcelona, 13, 36203 Vigo, Pontevedra, Spain",
    "Country": "Spain",
    "List of Events": "",
    "Latitude": 42.227772,
    "Longitude": -8.7217704
  },
  {
    "Name": "Makers Asturias",
    "City": "Gijon",
    "Catégorie": "",
    "VulcaTour-step": 13.44,
    "Vulca-tour": "VT13",
    "Link of the Logo": "https://drive.google.com/uc?id=1gQ2OWT6-pNTrrVFWtsPqEd6TyfC6p5Qo",
    "Location": "Av. Argentina, 132, 33213 Gijón, Asturias",
    "Country": "Spain",
    "List of Events": "",
    "Latitude": 43.538707,
    "Longitude": -5.7047299
  },
  {
    "Name": "Medialab Gijon",
    "City": "Gijon",
    "Catégorie": "",
    "VulcaTour-step": 13.45,
    "Vulca-tour": "VT13",
    "Link of the Logo": "https://drive.google.com/uc?id=15t4PJIZiTDu8AOykxbTGdzFYb743FNah",
    "Location": "Plaza Campus Universitario, 92A, 33394 Bernueces, Asturias, Spain",
    "Country": "Spain",
    "List of Events": "",
    "Latitude": 43.52308,
    "Longitude": -5.62524
  },
  {
    "Name": "Tinkerers Fablab",
    "City": "Castelldefel",
    "Catégorie": "",
    "VulcaTour-step": "07.30",
    "Vulca-tour": "VT07",
    "Link of the Logo": "https://drive.google.com/uc?id=1WLTW0fYtIKuOV1TRMNCSpG41DCPDRt9T",
    "Location": "PMT-UPC Ed. RDIT, Esteve Terradas, 1, 08860 Castelldefels, Barcelona, Espagne",
    "Country": "Spain",
    "List of Events": "",
    "Latitude": 41.275911,
    "Longitude": 1.9890042
  },
  {
    "Name": "Binary Kitchen",
    "City": "Regensburg",
    "Catégorie": "",
    "VulcaTour-step": 11.06,
    "Vulca-tour": "VT11",
    "Link of the Logo": "https://drive.google.com/uc?id=16IleznzuT9Jyz4drpO2j2IloLjKVcstZ",
    "Location": "Walderdorffstraße, 93053 Regensburg, Allemagne",
    "Country": "Germany",
    "List of Events": "",
    "Latitude": 49.0096429,
    "Longitude": 12.1190487
  },
  {
    "Name": "Chaos Computer Club Frankfurt",
    "City": "Frankfurt",
    "Catégorie": "",
    "VulcaTour-step": "08.11",
    "Vulca-tour": "VT08",
    "Link of the Logo": "https://drive.google.com/uc?id=1-PD4Kba1nQF09WNCv0abCjzqyCTLTFS5",
    "Location": "Häuser G. 2, 60487 Frankfurt am Main, Germany",
    "Country": "Germany",
    "List of Events": "",
    "Latitude": 50.124194,
    "Longitude": 8.636052
  },
  {
    "Name": "Cleverinside e.V",
    "City": "Lubbenau",
    "Catégorie": "",
    "VulcaTour-step": 12.33,
    "Vulca-tour": "VT08,VT12",
    "Link of the Logo": "https://drive.google.com/uc?id=1mKbZ-2vdcRD8K-VMH-GplYpjZSz3q__Z",
    "Location": "Dammstraße 72, 03222 Lübbenau/Spreewald, Allemagne",
    "Country": "Germany",
    "List of Events": "",
    "Latitude": 51.86546081,
    "Longitude": 13.97471264
  },
  {
    "Name": "Dezentrale",
    "City": "Dortmund",
    "Catégorie": "",
    "VulcaTour-step": "08.38,03.04",
    "Vulca-tour": "VT08,VT03",
    "Link of the Logo": "https://drive.google.com/uc?id=15rDvDvCBZ0_CnmiuPGUQ7PlN2HdgPhnV",
    "Location": "Richardstraße 18, 44137 Dortmund, Allemagne",
    "Country": "Germany",
    "List of Events": "",
    "Latitude": 51.5100738,
    "Longitude": 7.4397827
  },
  {
    "Name": "Makerspace Leipzig",
    "City": "Leipzig",
    "Catégorie": "",
    "VulcaTour-step": "08.33,02.15",
    "Vulca-tour": "VT08,VT02",
    "Link of the Logo": "https://drive.google.com/uc?id=1eBrW9iJWnwWv5K4suEncUEPR0CMWBT1Z",
    "Location": "Lindenthaler Str. 61-65, 04155 Leipzig",
    "Country": "Germany",
    "List of Events": "",
    "Latitude": 51.3657749,
    "Longitude": 12.3661611
  },
  {
    "Name": "Dezentrale Hackerspace",
    "City": "Leipzig",
    "Catégorie": "",
    "VulcaTour-step": "08.34",
    "Vulca-tour": "VT08",
    "Link of the Logo": "https://drive.google.com/uc?id=15rDvDvCBZ0_CnmiuPGUQ7PlN2HdgPhnV",
    "Location": "Dreilindenstraße 19, 04177 Leipzig",
    "Country": "Germany",
    "List of Events": "",
    "Latitude": 51.33635,
    "Longitude": 12.3383814
  },
  {
    "Name": "DING Fabrik",
    "City": "Collogne",
    "Catégorie": "",
    "VulcaTour-step": "08.40",
    "Vulca-tour": "VT08",
    "Link of the Logo": "https://drive.google.com/uc?id=1hP98P2E9fBtReW65tsIILe-8KXxN9Z0N",
    "Location": "Fritz-Voigt-Straße 1, 50823 Köln, Allemagne",
    "Country": "Germany",
    "List of Events": "",
    "Latitude": 50.9537561,
    "Longitude": 6.9305549
  },
  {
    "Name": "Fablab Siegen",
    "City": "Siegen",
    "Catégorie": "",
    "VulcaTour-step": "08.08",
    "Vulca-tour": "VT08",
    "Link of the Logo": "https://drive.google.com/uc?id=19iYbgTzQ3cVmIkRAAM1qMa2wWgGCOd-V",
    "Location": "Herrengarten 2, 57072 Siegen, Allemagne",
    "Country": "Germany",
    "List of Events": "",
    "Latitude": 50.8755495,
    "Longitude": 8.0194537
  },
  {
    "Name": "Hackerspace Siegen (HASI)",
    "City": "Siegen",
    "Catégorie": "",
    "VulcaTour-step": "08.09",
    "Vulca-tour": "VT08",
    "Link of the Logo": "https://drive.google.com/uc?id=19iYbgTzQ3cVmIkRAAM1qMa2wWgGCOd-V",
    "Location": "Effertsufer 104, 57072 Siegen, Allemagne",
    "Country": "Germany",
    "List of Events": "",
    "Latitude": 50.8689088,
    "Longitude": 8.0044829
  },
  {
    "Name": "E Lab",
    "City": "Siegen",
    "Catégorie": "",
    "VulcaTour-step": "08.10",
    "Vulca-tour": "VT08",
    "Link of the Logo": "https://drive.google.com/uc?id=14ufeGLMP2mYtJ-Xrq6H4Rpz4nqq7NvkG",
    "Location": "Glückauf Straße, 57076 Siegen, Allemagne",
    "Country": "Germany",
    "List of Events": "",
    "Latitude": 50.9051954,
    "Longitude": 8.028049
  },
  {
    "Name": "Makerspace TU Munchen",
    "City": "Munchen",
    "Catégorie": "",
    "VulcaTour-step": "06.10",
    "Vulca-tour": "VT06",
    "Link of the Logo": "https://drive.google.com/uc?id=1DWGdSC2mtuGkUF3DgwcaG6OILXOZH-AD",
    "Location": "bei, Lichtenbergstraße 6, 85748 Garching bei München, Allemagne",
    "Country": "Germany",
    "List of Events": "",
    "Latitude": 48.2681512,
    "Longitude": 11.6662131
  },
  {
    "Name": "Erfindergarden",
    "City": "Munchen",
    "Catégorie": "",
    "VulcaTour-step": "06.01",
    "Vulca-tour": "VT06",
    "Link of the Logo": "https://drive.google.com/uc?id=1Ivcsoud9M2SGxUjLiifuC7cV-Ow1sJv2",
    "Location": "Zenettistraße 11, 80337 München, Allemagne",
    "Country": "Germany",
    "List of Events": "",
    "Latitude": 48.1224265,
    "Longitude": 11.556925
  },
  {
    "Name": "Experimenta Makerspace",
    "City": "Heilbronn",
    "Catégorie": "",
    "VulcaTour-step": 11.04,
    "Vulca-tour": "VT11",
    "Link of the Logo": "https://drive.google.com/uc?id=1G-Q_SRw7YRzLoMYOG9WPp36HMhvtgA-G",
    "Location": "Kranenstraße 14, 74072 Heilbronn, Allemagne",
    "Country": "Germany",
    "List of Events": "",
    "Latitude": 49.14384,
    "Longitude": 9.2148
  },
  {
    "Name": "Fablab Chemnitz",
    "City": "Chemnitz",
    "Catégorie": "",
    "VulcaTour-step": 12.36,
    "Vulca-tour": "VT12",
    "Link of the Logo": "https://drive.google.com/uc?id=1aoc5OrQ4Q_mBCfdtyqSLUZmxV2Do3Q1p",
    "Location": "Philippstraße 13, 09130 Chemnitz, Allemagne",
    "Country": "Germany",
    "List of Events": "",
    "Latitude": 50.8421114,
    "Longitude": 12.9392798
  },
  {
    "Name": "FabLab Cottbus e.V.",
    "City": "Cottbus",
    "Catégorie": "",
    "VulcaTour-step": 12.32,
    "Vulca-tour": "VT12",
    "Link of the Logo": "https://drive.google.com/uc?id=1iVRn49vwjOM8ZB9zlrKxfHkivRNKJfEX",
    "Location": "Walther-Pauer-Straße 7, 03044 Cottbus, Allemagne",
    "Country": "Germany",
    "List of Events": "",
    "Latitude": 51.7690383,
    "Longitude": 14.3222515
  },
  {
    "Name": "Macherburg MS",
    "City": "Magdeburg",
    "Catégorie": "",
    "VulcaTour-step": 12.18,
    "Vulca-tour": "VT12",
    "Link of the Logo": "https://drive.google.com/uc?id=1ZB5Ade1JuMO7Qim_iMAToqaEMXzIADvU",
    "Location": "Porsestraße 19/Gebäude 13, 39104 Magdeburg, Allemagne",
    "Country": "Germany",
    "List of Events": "",
    "Latitude": 52.1084154,
    "Longitude": 11.6329726
  },
  {
    "Name": "Fablab Magdeburg",
    "City": "Magdeburg",
    "Catégorie": "",
    "VulcaTour-step": 12.19,
    "Vulca-tour": "VT12",
    "Link of the Logo": "https://drive.google.com/uc?id=1_b_NkL401W_3TxG6tw-H5F1dgVo9bzWv",
    "Location": "Universitätsplatz 2, Otto-von-Guericke-University, Magdeburg, Saxony-Anhalt, 39106, Germany",
    "Country": "Germany",
    "List of Events": "",
    "Latitude": 52.1397303,
    "Longitude": 11.6473719
  },
  {
    "Name": "Fabulous Fablab Saint Pauli",
    "City": "Hamburg",
    "Catégorie": "",
    "VulcaTour-step": "03.07,02.16",
    "Vulca-tour": "VT03,VT02",
    "Link of the Logo": "https://drive.google.com/uc?id=1ptTQY5yQuHzd6wg8SXjs9Yn479MncjMR",
    "Location": "Stockmeyerstrasse 43 Saint Pauli",
    "Country": "Germany",
    "List of Events": "",
    "Latitude": 53.5433909,
    "Longitude": 10.0085124
  },
  {
    "Name": "FAUFablab",
    "City": "Erlangen",
    "Catégorie": "",
    "VulcaTour-step": "11.05,10.11,08.13",
    "Vulca-tour": "VT11,VT10,VT08",
    "Link of the Logo": "https://drive.google.com/uc?id=1kY9n9UtuKbZXXLP83WK46nwVHpBdAaW2",
    "Location": "Schloßplatz 4, 91054 Erlangen, Allemagne",
    "Country": "Germany",
    "List of Events": "",
    "Latitude": 49.5976974,
    "Longitude": 11.0047174
  },
  {
    "Name": "Makerspace+ Erlangen",
    "City": "Erlangen",
    "Catégorie": "",
    "VulcaTour-step": 15.08,
    "Vulca-tour": "VT15",
    "Link of the Logo": "https://drive.google.com/uc?id=1udpn_vNQWEDbASDTjzC1MvSFjTbECA60",
    "Location": "Hauptstraße 71, 91054 Erlangen",
    "Country": "Germany",
    "List of Events": "",
    "Latitude": 49.6002121,
    "Longitude": 11.0026523
  },
  {
    "Name": "Future Makerspace of Luckenwalde",
    "City": "Luckenwalde",
    "Catégorie": "",
    "VulcaTour-step": 10.07,
    "Vulca-tour": "VT10",
    "Link of the Logo": "",
    "Location": "Beelitzer Str. 25A\n14943 Luckenwalde",
    "Country": "Germany",
    "List of Events": "",
    "Latitude": 52.0922479,
    "Longitude": 13.1730074
  },
  {
    "Name": "Hä?ppy Lab (Macherei Bautzen)",
    "City": "Bautzen",
    "Catégorie": "",
    "VulcaTour-step": 12.34,
    "Vulca-tour": "VT12",
    "Link of the Logo": "",
    "Location": "Demminer Str. 3, 13355 Berlin, Allemagne",
    "Country": "Germany",
    "List of Events": "",
    "Latitude": 52.5407191,
    "Longitude": 13.3946977
  },
  {
    "Name": "Sanderhaus",
    "City": "Kassel",
    "Catégorie": "",
    "VulcaTour-step": "08.37",
    "Vulca-tour": "VT08",
    "Link of the Logo": "https://drive.google.com/uc?id=16Oz6TC60NUcNdkL2i2cIObbxiCEpxGDO",
    "Location": "Sandershäuser Str. 79, 34123 Kassel, Allemagne",
    "Country": "Germany",
    "List of Events": "",
    "Latitude": 51.3106692,
    "Longitude": 9.5276067
  },
  {
    "Name": "KolorCubes",
    "City": "Kassel",
    "Catégorie": "",
    "VulcaTour-step": "10.02,08.35",
    "Vulca-tour": "VT10,VT08",
    "Link of the Logo": "https://drive.google.com/uc?id=1aXwwDh2ky9CwYu7ACX4qbsYau3X3T-pZ",
    "Location": "Harleshäuser Straße 131, 34128 Cassel, Allemagne",
    "Country": "Germany",
    "List of Events": "",
    "Latitude": 51.3351013,
    "Longitude": 9.4407689
  },
  {
    "Name": "Hammertime",
    "City": "Kassel",
    "Catégorie": "",
    "VulcaTour-step": "12.16,08.36,15.01",
    "Vulca-tour": "VT15,VT12,VT08",
    "Link of the Logo": "https://drive.google.com/uc?id=1VPfu04wE24UsENfquyxDooO4DG_dE497",
    "Location": "10 Sickingenstraße, 34117 Kassel, Allemagne",
    "Country": "Germany",
    "List of Events": "",
    "Latitude": 51.320229,
    "Longitude": 9.4955606
  },
  {
    "Name": "Happylab Berlin",
    "City": "Berlin",
    "Catégorie": "",
    "VulcaTour-step": 10.04,
    "Vulca-tour": "VT10",
    "Link of the Logo": "https://drive.google.com/uc?id=1qrUdC8UXKuBQ8GS8QqQRiLykrox8QQ3b",
    "Location": "Demminer Str. 3, 13355 Berlin",
    "Country": "Germany",
    "List of Events": "",
    "Latitude": 52.5407191,
    "Longitude": 13.3946977
  },
  {
    "Name": "TOP Lab",
    "City": "Berlin",
    "Catégorie": "",
    "VulcaTour-step": 10.05,
    "Vulca-tour": "VT10",
    "Link of the Logo": "https://drive.google.com/uc?id=1WOTdxEP9RNuzl539_yjNaLDeE6T7Fy_m",
    "Location": "Schillerpromenade 4\n12049 Berlin",
    "Country": "Germany",
    "List of Events": "",
    "Latitude": 52.4778542,
    "Longitude": 13.4213184
  },
  {
    "Name": "HobbyHimmel",
    "City": "Stuttgart",
    "Catégorie": "",
    "VulcaTour-step": 12.37,
    "Vulca-tour": "VT12",
    "Link of the Logo": "https://drive.google.com/uc?id=16Mt3wynGW-PYVNVzl2A14M3ah9df0tts",
    "Location": "Siemensstraße 140b, 70469 Stuttgart, Allemagne",
    "Country": "Germany",
    "List of Events": "",
    "Latitude": 48.8185939,
    "Longitude": 9.1694863
  },
  {
    "Name": "HRW Fablab Bottrop",
    "City": "Bottrop",
    "Catégorie": "",
    "VulcaTour-step": "08.39,03.05,15.02",
    "Vulca-tour": "VT03,VT08,VT15",
    "Link of the Logo": "https://drive.google.com/uc?id=10y0SmkapX4hQPR3NimNLdSZaXcDizGBE",
    "Location": "Kardinal-Hengsbach-Straße 2-6, 46236 Bottrop",
    "Country": "Germany",
    "List of Events": "",
    "Latitude": 51.5326835,
    "Longitude": 6.93278
  },
  {
    "Name": "Kamp-Lintfort Fablab",
    "City": "Kamp-lintfort",
    "Catégorie": "",
    "VulcaTour-step": "03.06",
    "Vulca-tour": "VT03",
    "Link of the Logo": "https://drive.google.com/uc?id=13vJtGsYEVR21-oTFp0T5zjcGagsucHW8",
    "Location": "47475 Kamp-Lintfort",
    "Country": "Germany",
    "List of Events": "",
    "Latitude": 51.5133491,
    "Longitude": 6.5136635
  },
  {
    "Name": "MachBar Potsdam",
    "City": "Potsdam",
    "Catégorie": "",
    "VulcaTour-step": 10.03,
    "Vulca-tour": "VT10",
    "Link of the Logo": "https://drive.google.com/uc?id=1GQGs-9yJk5D2D9aGPiRrOgQURoMNfvTt",
    "Location": "Friedrich-Engels-Straße 22, 14473 Potsdam",
    "Country": "Germany",
    "List of Events": "",
    "Latitude": 52.3892423,
    "Longitude": 13.0770165
  },
  {
    "Name": "MakerTreff",
    "City": "Reutlingen",
    "Catégorie": "",
    "VulcaTour-step": 12.38,
    "Vulca-tour": "VT12",
    "Link of the Logo": "https://drive.google.com/uc?id=1a9xc10LlS_008q5W6QN__eyIBs6sxTq4",
    "Location": "",
    "Country": "Germany",
    "List of Events": "",
    "Latitude": 48.49571439,
    "Longitude": 9.18522614
  },
  {
    "Name": "Oberlab (Stadtplatz 10.0)",
    "City": "Miesbach",
    "Catégorie": "",
    "VulcaTour-step": "06.02",
    "Vulca-tour": "VT06",
    "Link of the Logo": "https://drive.google.com/uc?id=1lFfcFa43COsWVEpz7DrqIHrI-DjJoJeO",
    "Location": "Stadtpl. 10A, 83714 Miesbach, Allemagne",
    "Country": "Germany",
    "List of Events": "",
    "Latitude": 47.7885331,
    "Longitude": 11.8335679
  },
  {
    "Name": "Protohaus",
    "City": "Braunschweig",
    "Catégorie": "",
    "VulcaTour-step": 12.17,
    "Vulca-tour": "VT12",
    "Link of the Logo": "https://drive.google.com/uc?id=1juXJaHGad_XBN8DlM0bs420WLzhMwtWS",
    "Location": "Rebenring 31, Eingang A12, 38106 Braunschweig, Allemagne",
    "Country": "Germany",
    "List of Events": "",
    "Latitude": 52.2763481,
    "Longitude": 10.5311018
  },
  {
    "Name": "Rabryka",
    "City": "Görlitz",
    "Catégorie": "",
    "VulcaTour-step": "08.30",
    "Vulca-tour": "VT08",
    "Link of the Logo": "https://drive.google.com/uc?id=1tosxSC1irvymkkDAdvRNgKQ5DqVytIX1",
    "Location": "Bautzener Str. 32, 02826 Görlitz",
    "Country": "Germany",
    "List of Events": "",
    "Latitude": 51.1534944,
    "Longitude": 14.9761016
  },
  {
    "Name": "SLUB Makerspace",
    "City": "Dresden",
    "Catégorie": "",
    "VulcaTour-step": "12.35,08.31",
    "Vulca-tour": "VT12,VT08",
    "Link of the Logo": "https://drive.google.com/uc?id=1b-gzHkU8hCMWDa9hHzNHCrV1Mh6D2wl3",
    "Location": "Zellescher Weg 17, 01069 Dresden",
    "Country": "Germany",
    "List of Events": "",
    "Latitude": 51.0293296,
    "Longitude": 13.7391127
  },
  {
    "Name": "RosenWerk Konglomerat",
    "City": "Dresden",
    "Catégorie": "",
    "VulcaTour-step": "08.32",
    "Vulca-tour": "VT08",
    "Link of the Logo": "https://drive.google.com/uc?id=13Fh9no7PAKKmgvORAXw8dweNyaH2xDeL",
    "Location": "Jagdweg 1-3, 01159 Dresden, Allemagne",
    "Country": "Germany",
    "List of Events": "",
    "Latitude": 51.0464308,
    "Longitude": 13.7159497
  },
  {
    "Name": "Schaffenburg Hackerspace",
    "City": "A-Schaffenburg",
    "Catégorie": "",
    "VulcaTour-step": "08.12",
    "Vulca-tour": "VT08",
    "Link of the Logo": "https://drive.google.com/uc?id=1sq4qvfauRxqCWPuXt9bRYPbJsAQ4ojRO",
    "Location": "63741 Aschaffenbourg, Allemagne",
    "Country": "Germany",
    "List of Events": "",
    "Latitude": 49.9951707,
    "Longitude": 9.115508
  },
  {
    "Name": "Sternenlab",
    "City": "Plauen",
    "Catégorie": "",
    "VulcaTour-step": 15.09,
    "Vulca-tour": "VT15",
    "Link of the Logo": "https://drive.google.com/uc?id=1WGYZXXupxkZWQ-RhusVlmySHCKkqumf5",
    "Location": "Senefelderstraße 5, 08523 Plauen, Deutschland",
    "Country": "Germany",
    "List of Events": "",
    "Latitude": 50.49736023,
    "Longitude": 12.12375355
  },
  {
    "Name": "VerstehBahnhof MS",
    "City": "Fürstenberg",
    "Catégorie": "",
    "VulcaTour-step": 12.2,
    "Vulca-tour": "VT12",
    "Link of the Logo": "https://drive.google.com/uc?id=1aVEqcMTKAMKc7fWB4CWX-2fXNl4zgN6G",
    "Location": "Bahnhofstraße 1, 16798 Fürstenberg/Havel, Allemagne",
    "Country": "Germany",
    "List of Events": "",
    "Latitude": 53.1863588,
    "Longitude": 13.1403609
  },
  {
    "Name": "ViNN:Lab – Makerspace der TH Wildau",
    "City": "Wildau",
    "Catégorie": "",
    "VulcaTour-step": 10.06,
    "Vulca-tour": "VT10",
    "Link of the Logo": "https://drive.google.com/uc?id=1ErqSFOkWXmAdjrlooXoQNSOPphBCAFbL",
    "Location": "Haus 16A, Raum 2095, Hochschulring 1, 15745 Wildau",
    "Country": "Germany",
    "List of Events": "",
    "Latitude": 52.318062,
    "Longitude": 13.6301896
  },
  {
    "Name": "WerkBox",
    "City": "Villingen-Schwenningen",
    "Catégorie": "",
    "VulcaTour-step": 12.39,
    "Vulca-tour": "VT12",
    "Link of the Logo": "https://drive.google.com/uc?id=1vexQiGAF76xoY61HexLC9kCWz1CnYsaP",
    "Location": "Villinger Str. 31, 78054 Villingen-Schwenningen, Allemagne",
    "Country": "Germany",
    "List of Events": "",
    "Latitude": 48.0619744,
    "Longitude": 8.5275022
  },
  {
    "Name": "Bio Makerspace",
    "City": "Cambridge",
    "Catégorie": "",
    "VulcaTour-step": "09.41",
    "Vulca-tour": "VT09",
    "Link of the Logo": "https://drive.google.com/uc?id=1PMsylcFLS5guDnXcqlN4x7Nj-aB6b9uq",
    "Location": "Clifford Allbutt, Hills Rd, Cambridge CB2 0AH",
    "Country": "England",
    "List of Events": "",
    "Latitude": 52.1763305,
    "Longitude": 0.1427928
  },
  {
    "Name": "Makespace Cambridge",
    "City": "Cambridge",
    "Catégorie": "",
    "VulcaTour-step": "09.40",
    "Vulca-tour": "VT09",
    "Link of the Logo": "https://drive.google.com/uc?id=1ceiNinTk1n4H5iaU9f_lLOmBwYzPv9YE",
    "Location": "16 Mill Ln, Cambridge CB2 1RX",
    "Country": "England",
    "List of Events": "",
    "Latitude": 52.2016945,
    "Longitude": 0.116774
  },
  {
    "Name": "Fablab London",
    "City": "London",
    "Catégorie": "",
    "VulcaTour-step": "02.05",
    "Vulca-tour": "VT02",
    "Link of the Logo": "https://drive.google.com/uc?id=1XAnl71UCyxl4mDSueP_ZnZl06I5bscHn",
    "Location": "1 Frederick's Place, London, EC2R 8AE, United Kingdom of Great Britain and Northern Ireland",
    "Country": "England",
    "List of Events": "",
    "Latitude": 51.5142645,
    "Longitude": -0.0912244
  },
  {
    "Name": "Institute of Making",
    "City": "London",
    "Catégorie": "",
    "VulcaTour-step": "09.46",
    "Vulca-tour": "VT09",
    "Link of the Logo": "https://drive.google.com/uc?id=1NGK9H-jT-1I2eaeRnbNcpCY7KL0pNINA",
    "Location": "University College London, Malet Pl, Bloomsbury, London WC1E 7JE",
    "Country": "England",
    "List of Events": "",
    "Latitude": 51.5245592,
    "Longitude": -0.1340401
  },
  {
    "Name": "Music Hackspace",
    "City": "London",
    "Catégorie": "",
    "VulcaTour-step": "09.47",
    "Vulca-tour": "VT09",
    "Link of the Logo": "https://drive.google.com/uc?id=14p20UP6gRJLQLSTMm8Caa0iL4QgXW0dS",
    "Location": "Somerset House, Lancaster Pl, London WC2R 1LA",
    "Country": "England",
    "List of Events": "",
    "Latitude": 51.510983,
    "Longitude": -0.1183386
  },
  {
    "Name": "BlackHorse Workshop",
    "City": "London",
    "Catégorie": "",
    "VulcaTour-step": "09.44",
    "Vulca-tour": "VT09",
    "Link of the Logo": "https://drive.google.com/uc?id=1Pw0GiHHRaCWf4FK99L0iw2bKOjNAOAdx",
    "Location": "1-2 Sutherland Road, Path, London E17 6BX",
    "Country": "England",
    "List of Events": "",
    "Latitude": 51.5909259,
    "Longitude": -0.0346436
  },
  {
    "Name": "Creative Nature HQ",
    "City": "London",
    "Catégorie": "",
    "VulcaTour-step": "09.45",
    "Vulca-tour": "VT09",
    "Link of the Logo": "https://drive.google.com/uc?id=1TXhSySGz9j0QElMYHr_Nd2YBi8l_bO1I",
    "Location": "08 Trinity Wharf, Harrington Way, London",
    "Country": "England",
    "List of Events": "",
    "Latitude": 51.4951365,
    "Longitude": 0.043492
  },
  {
    "Name": "South London Makerspace",
    "City": "London",
    "Catégorie": "",
    "VulcaTour-step": "09.37",
    "Vulca-tour": "VT09",
    "Link of the Logo": "https://drive.google.com/uc?id=1e1DpZ-x9cY9VOjwho_tx3f-sgJjBKm-L",
    "Location": "Arch 1129, 41 Norwood Road, Bath Factory Estate, London SE24 9AJ, United Kingdom",
    "Country": "England",
    "List of Events": "",
    "Latitude": 51.4520919,
    "Longitude": -0.1009907
  },
  {
    "Name": "GreenLab",
    "City": "London",
    "Catégorie": "",
    "VulcaTour-step": "09.43",
    "Vulca-tour": "VT09",
    "Link of the Logo": "https://drive.google.com/uc?id=1_SZDM2hgcBTeNYJnDLYDJAYRtGSe-0q-",
    "Location": "Corner of Collett and Keeton's Road, Bermondsey, London SE16 4EE",
    "Country": "England",
    "List of Events": "",
    "Latitude": 51.4964852,
    "Longitude": -0.0630425
  },
  {
    "Name": "Machines Room",
    "City": "London",
    "Catégorie": "",
    "VulcaTour-step": "09.42,02.06",
    "Vulca-tour": "VT02,VT09",
    "Link of the Logo": "https://drive.google.com/uc?id=1uRGceBLl98TXcNGClWwoqYEnxsqLMtUB",
    "Location": "45 Vyner Street, London E2 9DQ",
    "Country": "England",
    "List of Events": "",
    "Latitude": 51.5349444,
    "Longitude": -0.0551996
  },
  {
    "Name": "Blackpool Makerspace",
    "City": "Blackpool",
    "Catégorie": "",
    "VulcaTour-step": "09.27",
    "Vulca-tour": "VT09",
    "Link of the Logo": "",
    "Location": "Palatine Library, Blackpool. FY4 2AP",
    "Country": "England",
    "List of Events": "",
    "Latitude": 53.7951769,
    "Longitude": -3.0414317
  },
  {
    "Name": "Build Brighton",
    "City": "Brighton",
    "Catégorie": "",
    "VulcaTour-step": "09.51",
    "Vulca-tour": "VT09",
    "Link of the Logo": "https://drive.google.com/uc?id=1n6NTcdcXk9hubCTwHA1qE1x5E9NpG4Ol",
    "Location": "Rodhus, Freehold Terrace, Brighton BN2 4AB",
    "Country": "England",
    "List of Events": "",
    "Latitude": 50.8381671,
    "Longitude": -0.1267328
  },
  {
    "Name": "Eagle Labs Brighton",
    "City": "Brighton",
    "Catégorie": "",
    "VulcaTour-step": "09.50",
    "Vulca-tour": "VT09",
    "Link of the Logo": "https://drive.google.com/uc?id=1rzgiTMKJOabNgSHrA925D58WR7cLE1Oa",
    "Location": "1 Preston Rd, Brighton BN1 4QU",
    "Country": "England",
    "List of Events": "",
    "Latitude": 50.8337435,
    "Longitude": -0.139393
  },
  {
    "Name": "Exploring sense",
    "City": "Brighton",
    "Catégorie": "",
    "VulcaTour-step": "09.52",
    "Vulca-tour": "VT09",
    "Link of the Logo": "https://drive.google.com/uc?id=18ujUo4Ez6rP-bKDheaxJNcrF23k5pHqb",
    "Location": "Lewes Rd, Brighton BN1 9PW",
    "Country": "England",
    "List of Events": "",
    "Latitude": 50.8594105,
    "Longitude": -0.0967374
  },
  {
    "Name": "Make Liverpool",
    "City": "Liverpool",
    "Catégorie": "",
    "VulcaTour-step": "09.32",
    "Vulca-tour": "VT09",
    "Link of the Logo": "https://drive.google.com/uc?id=1MKKXDT901FmCktpPiZhVEOz6Le1YE2ht",
    "Location": "Unit 1, 34 Regent St, Liverpool L3 7BN, United Kingdom",
    "Country": "England",
    "List of Events": "",
    "Latitude": 53.4181619,
    "Longitude": -2.9976
  },
  {
    "Name": "Fablab Liverpool",
    "City": "Liverpool",
    "Catégorie": "",
    "VulcaTour-step": "09.33",
    "Vulca-tour": "VT09",
    "Link of the Logo": "https://drive.google.com/uc?id=1__lQ0MM4D5CPu3vojy9rkFg05ME2NzPs",
    "Location": "John Lennon Art and Design Building, Duckinfield St, Liverpool, Merseyside, L3 5YD, United Kingdom",
    "Country": "England",
    "List of Events": "",
    "Latitude": 53.405075,
    "Longitude": -2.9702057
  },
  {
    "Name": "DoES Liverpool",
    "City": "Liverpool",
    "Catégorie": "",
    "VulcaTour-step": "09.31",
    "Vulca-tour": "VT09",
    "Link of the Logo": "https://drive.google.com/uc?id=1hquXmkdtAhphVCQVchiC46yBM7Hf5Ewv",
    "Location": "The Tapestry, 68 - 74 Kempston St, Liverpool L3 8HL, United Kingdom",
    "Country": "England",
    "List of Events": "",
    "Latitude": 53.4104118,
    "Longitude": -2.9704787
  },
  {
    "Name": "Fablab Coventry",
    "City": "Coventry",
    "Catégorie": "",
    "VulcaTour-step": "09.36",
    "Vulca-tour": "VT09",
    "Link of the Logo": "https://drive.google.com/uc?id=1TL5ths7RqQP3ecW2YkYHXy0e3rrHA7yj",
    "Location": "Unit 27, City Centre, City Arcade, Coventry CV1 3HX, United Kingdo",
    "Country": "England",
    "List of Events": "",
    "Latitude": 52.406104,
    "Longitude": -1.5150364
  },
  {
    "Name": "Fablab Warrington",
    "City": "Warrington",
    "Catégorie": "",
    "VulcaTour-step": "09.34",
    "Vulca-tour": "VT09",
    "Link of the Logo": "https://drive.google.com/uc?id=1LMGlYhE47PUV5JuZOYQ6hrhQNWhCZnhY",
    "Location": "Beamont Collegiate Academy\nLong Lane\nWarrington\nCheshire\nWA2 8PX",
    "Country": "England",
    "List of Events": "",
    "Latitude": 53.4080676,
    "Longitude": -2.5891672
  },
  {
    "Name": "Hack Oldham",
    "City": "Oldham",
    "Catégorie": "",
    "VulcaTour-step": "09.28",
    "Vulca-tour": "VT09",
    "Link of the Logo": "https://drive.google.com/uc?id=1wlxoJYSzFtlMA3J1CHeue2tW3UYwBPqg",
    "Location": "38-44 Yorkshire St, Oldham OL1 1SE, United Kingdom",
    "Country": "England",
    "List of Events": "",
    "Latitude": 53.5421552,
    "Longitude": -2.1091101
  },
  {
    "Name": "Hackerspace Newcastle",
    "City": "Newcastle",
    "Catégorie": "",
    "VulcaTour-step": "09.23",
    "Vulca-tour": "VT09",
    "Link of the Logo": "https://drive.google.com/uc?id=1gB0kSnCHaOPVegT9sZ4DiyFGMk9RElSC",
    "Location": "Commercial Union House, 39 Pilgrim St, Newcastle upon Tyne NE1 6QE, United Kingdom",
    "Country": "England",
    "List of Events": "",
    "Latitude": 54.9736679,
    "Longitude": -1.6112187
  },
  {
    "Name": "Hacman - Hackspace Manchester",
    "City": "Manchester",
    "Catégorie": "",
    "VulcaTour-step": "09.30",
    "Vulca-tour": "VT09",
    "Link of the Logo": "https://drive.google.com/uc?id=1d6e1IAftTJCkHyl8K1KgYxyhQ9uGTGQN",
    "Location": "Wellington House, Pollard St E, Manchester M40 7FS, United Kingdom",
    "Country": "England",
    "List of Events": "",
    "Latitude": 53.4846836,
    "Longitude": -2.2139467
  },
  {
    "Name": "Ipswich Makerspace",
    "City": "Ipswich",
    "Catégorie": "",
    "VulcaTour-step": "09.38",
    "Vulca-tour": "VT09",
    "Link of the Logo": "https://drive.google.com/uc?id=1N9AcsWQQKBRnmcuH6uk8x8YavmsA_PqK",
    "Location": "11 Dove St, Ipswich IP4 1NG,",
    "Country": "England",
    "List of Events": "",
    "Latitude": 52.0562172,
    "Longitude": 1.1647077
  },
  {
    "Name": "Leigh Hackspace",
    "City": "Leigh",
    "Catégorie": "",
    "VulcaTour-step": "09.35",
    "Vulca-tour": "VT09",
    "Link of the Logo": "https://drive.google.com/uc?id=1FokCdiLgdu4AwmVagpHsCJ1dNu31dznn",
    "Location": "3rd Floor Leigh Spinners Mill, Park Ln, Leigh WN7 2LB, United Kingdom",
    "Country": "England",
    "List of Events": "",
    "Latitude": 53.4929384,
    "Longitude": -2.4935825
  },
  {
    "Name": "Norwich Hackerspace",
    "City": "Norwich",
    "Catégorie": "",
    "VulcaTour-step": "09.39",
    "Vulca-tour": "VT09",
    "Link of the Logo": "https://drive.google.com/uc?id=1VJQnLCwh0CoBo_hGNYr8ZRmEoI0_hZwg",
    "Location": "20 - 28 Muspole Street, NR3 1DJ",
    "Country": "England",
    "List of Events": "",
    "Latitude": 52.6339102,
    "Longitude": 1.2930139
  },
  {
    "Name": "Preston Hackerspace",
    "City": "Preston",
    "Catégorie": "",
    "VulcaTour-step": "09.26",
    "Vulca-tour": "VT09",
    "Link of the Logo": "https://drive.google.com/uc?id=1wXcrtAEZDCwzLTx22Aa9uk1OmvmRoDPA",
    "Location": "9 Cross St, Preston PR1 3XA, Royaume-Uni",
    "Country": "England",
    "List of Events": "",
    "Latitude": 53.7563629,
    "Longitude": -2.6991678
  },
  {
    "Name": "So Make It",
    "City": "Southampton",
    "Catégorie": "",
    "VulcaTour-step": "09.48",
    "Vulca-tour": "VT09",
    "Link of the Logo": "https://drive.google.com/uc?id=1yN3aOnQWO0k-UNSIf0vv8RLb6KCH9DOB",
    "Location": "Pitt Rd, Southampton SO15 3FQ",
    "Country": "England",
    "List of Events": "",
    "Latitude": 50.9130133,
    "Longitude": -1.4261997
  },
  {
    "Name": "The Making Room",
    "City": "Blackburn",
    "Catégorie": "",
    "VulcaTour-step": "09.24",
    "Vulca-tour": "VT09",
    "Link of the Logo": "https://drive.google.com/uc?id=1vtHUGk0c5lmBw8a3yTOynihIhMCNA-un",
    "Location": "1 Exchange St, Ewood, Blackburn BB1 7JN, Royaume-Uni",
    "Country": "England",
    "List of Events": "",
    "Latitude": 53.750082,
    "Longitude": -2.484403
  },
  {
    "Name": "Bonevet Gjakova",
    "City": "Gjakova",
    "Catégorie": "",
    "VulcaTour-step": 11.37,
    "Vulca-tour": "VT11",
    "Link of the Logo": "https://drive.google.com/uc?id=1OY5c7ZXZdL9JlQMFQYayK-ru_RZHKu7D",
    "Location": "Str. \"Vëllezërit Frashëri, Gjakovë 50000",
    "Country": "Kosovo",
    "List of Events": "",
    "Latitude": 42.3844104,
    "Longitude": 20.4285021
  },
  {
    "Name": "Prishtina hackerspace",
    "City": "Prishtina",
    "Catégorie": "",
    "VulcaTour-step": 11.36,
    "Vulca-tour": "VT11",
    "Link of the Logo": "https://drive.google.com/uc?id=1UXtIUKpUdec92UFk7T_iF1PWhs_0bhaf",
    "Location": "Ganimete Terbeshi, No. 2, Prishtinë 10000, Kosovo",
    "Country": "Kosovo",
    "List of Events": "",
    "Latitude": 42.656175,
    "Longitude": 21.169594
  },
  {
    "Name": "Brugge Fablab",
    "City": "Brugge",
    "Catégorie": "",
    "VulcaTour-step": "02.04",
    "Vulca-tour": "VT02",
    "Link of the Logo": "https://drive.google.com/uc?id=1Bo2VSOmACTYhOu_VXAPIfAAJj1uV_npl",
    "Location": "Binnenweg 4, Brugge, West- Vlaanderen , 8200, Belgium",
    "Country": "Belgium",
    "List of Events": "",
    "Latitude": 51.2259803,
    "Longitude": 3.225813
  },
  {
    "Name": "Fablab Factory",
    "City": "Aalst",
    "Catégorie": "",
    "VulcaTour-step": "05.02",
    "Vulca-tour": "VT05",
    "Link of the Logo": "https://drive.google.com/uc?id=1EZB46Qd7REHBQVxHWJm_5baZTTeaMiO3",
    "Location": "Passage Pieter van Aelst 12, 9300 Aalst, Belgique",
    "Country": "Belgium",
    "List of Events": "",
    "Latitude": 50.939121,
    "Longitude": 4.0368929
  },
  {
    "Name": "Fablab Leuven",
    "City": "Leuven",
    "Catégorie": "",
    "VulcaTour-step": 12.13,
    "Vulca-tour": "VT12",
    "Link of the Logo": "https://drive.google.com/uc?id=1ykfgTb7HdxoxiCD9VW0O0hAeAUrliFvT",
    "Location": "Celestijnenlaan 300, 3001 Leuven, Belgique",
    "Country": "Belgium",
    "List of Events": "",
    "Latitude": 50.8607087,
    "Longitude": 4.6806033
  },
  {
    "Name": "Imal",
    "City": "Brussels",
    "Catégorie": "",
    "VulcaTour-step": "03.17",
    "Vulca-tour": "VT03",
    "Link of the Logo": "https://drive.google.com/uc?id=1qlggpTwCnBr6KPz0SylXD1elNFH-A3Xa",
    "Location": "Quai des Charbonnages 30/34, 1080 Bruxelles",
    "Country": "Belgium",
    "List of Events": "",
    "Latitude": 50.8550521,
    "Longitude": 4.3415894
  },
  {
    "Name": "IncubHacker",
    "City": "Namur",
    "Catégorie": "",
    "VulcaTour-step": "05.05",
    "Vulca-tour": "VT05",
    "Link of the Logo": "https://drive.google.com/uc?id=1woDXyiz_1Fxd_ybtF9_7U5E7TtR_1Ygh",
    "Location": "Boulevard d'Herbatte 14a, 5000 Namur, Belgique",
    "Country": "Belgium",
    "List of Events": "",
    "Latitude": 50.4681262,
    "Longitude": 4.8776473
  },
  {
    "Name": "TRAKK Namur",
    "City": "Namur",
    "Catégorie": "",
    "VulcaTour-step": "12.15,05.04",
    "Vulca-tour": "VT12,VT05",
    "Link of the Logo": "https://drive.google.com/uc?id=1zMQq73g7zGhMT72AB6hr-k_t7UYkugWN",
    "Location": "Avenue Reine Astrid 16, 5000 Namur, Belgique",
    "Country": "Belgium",
    "List of Events": "",
    "Latitude": 50.4621321,
    "Longitude": 4.8569736
  },